stop_id,stop_code,stop_name,lat,lon,Zip Codes
243,243,Rio Grande/15th,30.278966,-97.746339,78701
466,466,8740 Lamar/Payton Gin,30.356809,-97.701066,78753
467,467,Fairfield Station (SB),30.355296,-97.703128,78753
468,468,Lamar/Thurmond,30.353139,-97.706082,78753
469,469,8320 Lamar/Meadowlark,30.352256,-97.707295,78753
471,471,7720 Lamar/Stobaugh,30.346044,-97.713966,78757
472,472,7520 Lamar/Morrow,30.343163,-97.715653,78752
474,474,6814 Lamar/Justin,30.336204,-97.720006,78757
475,475,6600 Lamar/Brentwood,30.334109,-97.721322,78757
476,476,6200 Lamar/Denson,30.330425,-97.723636,78752
480,480,5528 Lamar/Koenig,30.324247,-97.727528,78751
483,483,5106 Lamar/51st,30.319051,-97.730805,78751
484,484,Triangle Station (SB),30.31463,-97.732523,78751
485,485,4500 Guadalupe/45th,30.311163,-97.732958,78751
486,486,Guadalupe/43rd Street,30.308831,-97.734395,78751
487,487,Guadalupe/41st Street,30.306703,-97.735756,78751
489,489,Guadalupe/Maiden,30.301674,-97.73896,78705
490,490,Guadalupe/34th Street,30.300456,-97.739709,78705
494,494,Guadalupe/27th Street,30.292197,-97.74131,78705
497,497,UT West Mall Station (SB),30.286064,-97.741815,78705
498,498,Guadalupe/W. 21st Street,30.283384,-97.742081,78705
501,501,Guadalupe/16th Street,30.278962,-97.742708,78701
506,506,11th/Congress,30.2727,-97.741376,78701
517,517,612 Congress/Riverside,30.255385,-97.747685,78704
522,522,2020 Congress/Crockett,30.243058,-97.752263,78704
524,524,2300 Congress/College,30.240333,-97.752905,78704
526,526,2622 Congress/Cumberland,30.235695,-97.756374,78704
527,527,2918 Congress/La Vista,30.23259,-97.75853,78704
529,529,Congress/Pickle,30.226896,-97.761935,78704
531,531,4210 Congress/Radam,30.220763,-97.765411,78745
543,543,4722 Congress/Sheraton,30.214748,-97.769232,78745
545,545,5300 Congress/Ramble,30.208685,-97.773108,78745
548,548,6220 Congress/North Bluff,30.199041,-97.776595,78745
550,550,115 William Cannon/Circle S,30.192664,-97.777841,78745
551,551,409 William Cannon/Circle S,30.192082,-97.776037,78745
552,552,601 William Cannon/Circle S,30.191387,-97.77353,78745
553,553,Nelms/Bluff Springs,30.192738,-97.765327,78744
554,554,Bluff Springs/William Cannon,30.189427,-97.767879,78744
555,555,412 William Cannon/North Bluff,30.191773,-97.774139,78745
556,556,110 William Cannon/Circle S,30.192971,-97.777955,78745
558,558,6319 Congress/Circle S,30.197392,-97.776908,78745
559,559,Little Texas Station (NB),30.202145,-97.775515,78745
560,560,5405 Congress/Mockingbird,30.207107,-97.773733,78745
568,568,Congress/Alpine,30.228248,-97.760943,78704
571,571,2705 Congress/Cumberland,30.235347,-97.75633,78704
573,573,2203 Congress/Live Oak,30.241689,-97.752423,78704
574,574,1901 Congress/Mary,30.245024,-97.751212,78704
576,576,Congress/The Circle,30.251531,-97.748789,78704
577,577,611 Congress/Academy,30.25534,-97.74739,78704
590,590,Lavaca/12th,30.274408,-97.742995,78701
591,591,Capitol Station (NB),30.275587,-97.742558,78701
593,593,Lavaca/15th,30.277383,-97.741894,78701
599,599,Guadalupe/Dean Keeton,30.289567,-97.741302,78705
603,603,31st Street Station (NB),30.297781,-97.741153,78705
604,604,Guadalupe/34th,30.300639,-97.739393,78705
605,605,Guadalupe/38th,30.302526,-97.738152,78705
606,606,Hyde Park Station (NB),30.304418,-97.73695,78751
607,607,Guadalupe/41st,30.306234,-97.735787,78751
608,608,Guadalupe/43rd,30.3085,-97.73434,78751
609,609,4413 Guadalupe/45th,30.31073,-97.73293,78751
610,610,Triangle Station (NB),30.314816,-97.732264,78751
611,611,5007 Lamar/51st,30.318411,-97.730947,78751
612,612,North Loop East Station (NB),30.321319,-97.729097,78751
613,613,5419 Lamar/Nelray,30.32278,-97.72819,78751
614,614,5555 Lamar/Nelray,30.324086,-97.727368,78751
617,617,6201 Lamar/Denson,30.330181,-97.723533,78752
618,618,6541 Lamar/Brentwood,30.33387,-97.72121,78752
620,620,7240 Lamar/St Johns,30.339956,-97.71769,78752
622,622,7545 Lamar/Morrow,30.34385,-97.71492,78752
623,623,8071 Lamar/Research,30.348283,-97.711558,78753
624,624,8415 Lamar/Thurmond,30.353121,-97.70573,78753
627,627,8745 Lamar/Deen,30.356405,-97.70124,78753
628,628,8911 Lamar/Carpenter,30.358138,-97.699627,78753
634,634,3200 Oak Springs/Airport,30.27361,-97.69835,78721
635,635,Oak Springs/Ridgeway,30.272556,-97.704568,78702
637,637,2420 Rosewood/Bedford,30.272319,-97.708296,78702
638,638,2370 Rosewood/Hargrave,30.271236,-97.710649,78702
642,642,Rosewood/San Bernard,30.268756,-97.725507,78702
657,657,907 11th/Branch,30.26986,-97.731241,78702
658,658,11th/Waller,30.269271,-97.729681,78702
660,660,1213 Rosewood/San Bernard,30.26853,-97.726049,78702
661,661,1319 Rosewood/Angelina,30.26878,-97.72446,78702
663,663,1909 Rosewood/Chicon,30.269696,-97.718601,78702
664,664,Rosewood/Northwestern,30.27,-97.71674,78702
665,665,2365 Rosewood/Hargrave,30.270988,-97.71088,78702
666,666,Rosewood/Webberville,30.272357,-97.705144,78702
667,667,2807 Oak Springs/Webberville,30.272787,-97.702321,78702
668,668,3201 Oak Springs/Airport,30.273484,-97.698127,78721
669,669,Oak Springs/Springdale,30.273534,-97.691296,78721
674,674,Northcross Transfer Center,30.35361,-97.73592,78757
675,675,7500 Burnet/Richcreek,30.35066,-97.734362,78757
678,678,Burnet/Twin Oaks Dr.,30.342693,-97.738671,78757
684,684,North Loop Station (SB),30.324999,-97.739681,78756
685,685,Burnet/Hancock,30.322213,-97.739436,78756
686,686,Burnet/W. 49th,30.320333,-97.739313,78756
687,687,Burnet/W. 47th,30.318126,-97.739952,78756
688,688,Burnet/W. 45th,30.315528,-97.741621,78756
689,689,4214 Medical Parkway/43rd,30.312474,-97.742371,78756
690,690,4112 Medical Parkway/42nd,30.310901,-97.742667,78756
691,691,Medical Pkwy/W. 40th,30.308566,-97.742745,78756
695,695,3120 Lamar/32nd,30.301236,-97.74574,78705
716,716,800 Cesar Chavez/West,30.265741,-97.752406,78701
717,717,B R Reynolds/Lamar,30.267402,-97.756576,78703
722,722,1414 Lamar/Cinco,30.252465,-97.764114,78704
728,728,2806 Menchaca/Lightsey,30.243035,-97.781628,78704
729,729,3204 Menchaca/Glen Allen,30.240345,-97.782242,78704
730,730,3624 Menchaca/Larchmont,30.237452,-97.783568,78704
732,732,3906 Menchaca/Prather,30.233969,-97.785765,78704
733,733,4308 Menchaca/Ben White,30.230504,-97.788112,78704
734,734,4430 Menchaca/Redd,30.228464,-97.78938,78745
735,735,4616 Menchaca/Forest Hill,30.225991,-97.790916,78745
736,736,4804 Menchaca/Frontier,30.223743,-97.792347,78745
737,737,5000 Menchaca/Jones,30.220975,-97.794067,78745
739,739,5322 Menchaca/Inverness,30.217803,-97.795995,78745
740,740,5532 Menchaca/Stassney,30.216058,-97.797163,78745
742,742,5720 Menchaca/Whitestone,30.214391,-97.799519,78745
743,743,6212 Menchaca/Berkett,30.210671,-97.803629,78745
744,744,6372 Menchaca/Berkeley,30.208952,-97.804711,78745
745,745,6514 Menchaca/Miles,30.207078,-97.80593,78745
746,746,Menchaca/William Cannon SW Corner,30.202031,-97.807163,78745
750,750,Menchaca/William Cannon SE Corner,30.202687,-97.806816,78745
751,751,6601 Menchaca/Miles,30.206901,-97.805837,78745
752,752,6305 Menchaca/Berkeley,30.209018,-97.804497,78745
754,754,6001 Menchaca/Independence,30.21281,-97.801883,78745
755,755,5701 Menchaca/Whitestone,30.214491,-97.798856,78745
758,758,5309 Menchaca/Fair Oaks,30.219059,-97.794998,78745
764,764,4301 Menchaca/Fort View,30.23086,-97.787599,78704
765,765,3909 Menchaca/Prather,30.234049,-97.785514,78704
767,767,3505 Menchaca/Larchmont,30.238295,-97.782915,78704
768,768,3201 Menchaca/Glen Allen,30.240512,-97.782084,78704
771,771,2639 Lamar/Dickson,30.245377,-97.779693,78704
772,772,2401 Lamar/Bluebonnet,30.246752,-97.777395,78704
773,773,2201 Lamar/Kinney,30.247279,-97.774278,78704
776,776,1417 Lamar/Cinco,30.252289,-97.763972,78704
777,777,Lamar Square Station (NB),30.254034,-97.762592,78704
781,781,Barton Springs Station (NB),30.261634,-97.758053,78704
806,806,3105 Lamar/31st,30.30053,-97.745954,78705
807,807,3317 Lamar/34th,30.302553,-97.744683,78705
809,809,38th/Medical Pkwy,30.305686,-97.743879,78756
811,811,Medical Pkwy/41st,30.309731,-97.742576,78756
813,813,Medical Pkwy/44th,30.314054,-97.741916,78756
814,814,Burnet/45th,30.316,-97.741026,78756
815,815,Burnet/49th,30.320494,-97.739145,78756
816,816,5011 Burnet/Hancock,30.321766,-97.739242,78756
817,817,North Loop Station (NB),30.326284,-97.739566,78756
819,819,Burnet/Houston,30.328766,-97.739742,78756
820,820,Burnet/Adams,30.330446,-97.739876,78756
821,821,5621 Burnet/Northland,30.332384,-97.739997,78756
822,822,Allandale Station (NB),30.3342,-97.7398,78756
824,824,6425 Burnet/Whitehorse,30.33997,-97.7389,78757
826,826,Justin Station (NB),30.345183,-97.73755,78757
827,827,Burnet/Greenlawn Pkwy,30.34851,-97.73545,78757
828,828,7439 Burnet/Richcreek,30.3504,-97.73424,78757
829,829,Northcross Station (NB),30.353858,-97.732081,78757
830,830,Northcross Mall,30.355782,-97.734268,78757
831,831,ACC Riverside Campus Stop,30.236201,-97.704846,78741
832,832,Hogan/Community,30.236459,-97.701552,78741
834,834,1214 Montopolis/Larch,30.232434,-97.698769,78741
847,847,2700 7th/Calles,30.260665,-97.711521,78702
848,848,2500 7th/Pedernales,30.260963,-97.71356,78702
863,863,11th/San Jacinto SW Corner,30.272,-97.738836,78701
864,864,Trinity/12th,30.272709,-97.73715,78701
866,866,Trinity/17th,30.277788,-97.735271,78701
870,870,1509 Martin Luther King/Comal,30.279074,-97.724701,78702
872,872,1813 Martin Luther King/Chicon,30.279695,-97.721372,78702
873,873,2207 Martin Luther King/Ferdinand,30.28023,-97.718137,78702
874,874,2401 Martin Luther King/Maple,30.280586,-97.715949,78702
875,875,2615 Martin Luther King/Walnut,30.280972,-97.713458,78702
877,877,2915 Martin Luther King/Clifford,30.281869,-97.707799,78702
878,878,2945 Martin Luther King/Harvey,30.282207,-97.70565,78702
880,880,3431 Martin Luther King/Greenwood,30.283318,-97.698197,78721
881,881,3601 Martin Luther King/EM Franklin,30.283699,-97.695712,78721
882,882,3815 Martin Luther King/Perez,30.284091,-97.693161,78721
886,886,Martin Luther King/Springdale,30.28569,-97.68292,78721
898,898,4600 Martin Luther King/Springdale,30.285994,-97.682246,78723
902,902,3900 Martin Luther King/Perez,30.284342,-97.692951,78723
905,905,3300 Martin Luther King/Tillery,30.283022,-97.701544,78723
909,909,2700 Martin Luther King/Walnut,30.28113,-97.713317,78722
910,910,2300 Martin Luther King/Chestnut,30.280549,-97.717136,78722
911,911,1900 Martin Luther King/Chicon,30.279877,-97.721101,78722
912,912,1700 Martin Luther King/Leona,30.279502,-97.723095,78702
913,913,1498 Martin Luther King/Comal,30.279075,-97.725602,78722
916,916,San Jacinto/17th,30.278165,-97.736503,78701
919,919,San Jacinto/14th,30.275451,-97.737526,78701
921,921,San Jacinto/12th,30.273386,-97.73828,78701
922,922,San Jacinto/11th,30.272213,-97.738718,78701
928,928,IH-35/East 7th,30.266895,-97.735299,78701
929,929,7th/San Marcos,30.265971,-97.732268,78702
931,931,7th/Navasota,30.264583,-97.728178,78702
934,934,Chicon/East 7th,30.262511,-97.722327,78702
935,935,7th/Robert T Martinez Jr,30.261532,-97.718195,78702
936,936,2425 7th/Pedernales,30.260851,-97.713904,78702
937,937,2621 7th/Calles,30.260533,-97.711831,78702
938,938,2789 7th/Pleasant Valley,30.260046,-97.709625,78702
939,939,3223 7th/Allen,30.257758,-97.704514,78702
940,940,3535 7th/Springdale,30.256025,-97.701819,78702
942,942,5021 7th/Shady,30.253397,-97.697886,78702
944,944,618 Vargas/Ponca,30.235736,-97.692557,78741
950,950,6306 Riverside/Montopolis,30.224996,-97.703124,78741
951,951,6000 Riverside/Clubview,30.226586,-97.706711,78741
953,953,1101 Grove (ACC Riverside),30.235008,-97.704179,78741
954,954,2007 Anderson/Burnet,30.354472,-97.727616,78757
956,956,Woodrow/Anderson,30.35245,-97.7234,78757
958,958,Woodrow/Princeton,30.349882,-97.723185,78757
960,960,Woodrow/Richcreek,30.346068,-97.724799,78757
962,962,7100 Woodrow/Piedmont,30.342981,-97.725124,78757
963,963,7000 Woodrow/Cullen,30.341522,-97.725904,78757
964,964,6800 Woodrow/Choquette,30.339208,-97.727376,78757
965,965,6600 Woodrow/Brentwood,30.337479,-97.728461,78757
966,966,Woodrow/Payne,30.335923,-97.729446,78757
967,967,Woodrow/Romeria,30.333637,-97.730682,78757
968,968,5900 Woodrow/Koenig,30.331024,-97.7316,78757
969,969,5626 Woodrow/Theckla,30.328866,-97.732957,78756
970,970,5500 Woodrow/Houston,30.326461,-97.734505,78756
971,971,5300 Woodrow/North Loop,30.324296,-97.735849,78756
972,972,5200 Woodrow/North,30.322571,-97.736955,78756
973,973,1215 51st/Grover,30.320538,-97.735873,78756
974,974,1143 49th/Grover,30.318547,-97.736463,78756
977,977,909 45th/Lamar,30.31298,-97.736887,78751
978,978,507 45th/Guadalupe,30.310607,-97.732618,78751
979,979,301 45th/Avenue C,30.309535,-97.730392,78751
980,980,Speedway/45th,30.30835,-97.728674,78751
981,981,4300 Speedway/43rd,30.306697,-97.729732,78751
982,982,4004 Speedway/40th,30.303498,-97.731786,78751
983,983,3812 Speedway/38th Half,30.30138,-97.733132,78751
985,985,3204 Speedway/33rd,30.29713,-97.735816,78705
993,993,Cesar Chavez/Brazos,30.262969,-97.743365,78701
995,995,515 Cesar Chavez/Red River,30.261712,-97.738932,78701
999,999,Riverside/Summit,30.245976,-97.731836,78741
1002,1002,Riverside/Burton,30.240341,-97.727308,78741
1003,1003,2237 Riverside/Willow Creek,30.238275,-97.726015,78741
1005,1005,2507 Riverside/Pleasant Valley,30.233867,-97.72376,78741
1008,1008,4411 Oltorf/Huntwick,30.226619,-97.72626,78741
1009,1009,2401 Wickersham/Oltorf,30.226039,-97.723488,78741
1010,1010,Wickersham/Cromwell,30.227021,-97.721847,78741
1011,1011,2207 Wickersham/Sheringham,30.229315,-97.721353,78741
1013,1013,4825 Riverside/Kirksey,30.231316,-97.717041,78741
1014,1014,5100 Riverside/Riverside Farms,30.230355,-97.714648,78741
1015,1015,5401 Riverside/Faro,30.229169,-97.712324,78741
1016,1016,5500 Riverside/Penick,30.228277,-97.710766,78741
1017,1017,Ruiz Library,30.229539,-97.706558,78741
1018,1018,Riverside/Faro,30.229833,-97.712898,78741
1020,1020,4900 Riverside/Crossing Place,30.23136,-97.71637,78741
1021,1021,4823 Riverside/Crossing Place,30.231928,-97.717861,78741
1022,1022,2100 Wickersham/Riverside,30.231526,-97.720884,78741
1023,1023,Wickersham/Sheringham,30.229914,-97.721493,78741
1024,1024,2300 Wickersham/Cromwell,30.227534,-97.721731,78741
1025,1025,2440 Wickersham/Oltorf,30.226083,-97.723784,78741
1027,1027,2433 Pleasant Valley/Oltorf,30.228028,-97.727241,78741
1028,1028,2209 Pleasant Valley/Sheringham,30.231097,-97.725299,78741
1029,1029,2426 Riverside/Pleasant Valley,30.235706,-97.72437,78741
1030,1030,Riverside/Willow Creek,30.238065,-97.725635,78741
1032,1032,Riverside/Town Creek,30.24114,-97.727591,78741
1033,1033,Riverside/Shore District,30.242868,-97.728889,78741
1034,1034,1600 Riverside/Summit,30.246505,-97.731969,78741
1038,1038,400 Cesar Chavez/Trinity,30.26246,-97.74084,78701
1042,1042,2231 Guadalupe/West Mall UT,30.285738,-97.741618,78705
1049,1049,Speedway/35th,30.299217,-97.734341,78705
1051,1051,Speedway/39th,30.301591,-97.732825,78751
1053,1053,4301 Speedway/43rd,30.306616,-97.729616,78751
1054,1054,108 45th Street/Avenue D,30.309112,-97.729235,78751
1055,1055,408 45th Street/Avenue A,30.310425,-97.731878,78751
1056,1056,636 45th/Guadalupe,30.31125,-97.733468,78751
1057,1057,918 45th/Lamar,30.313397,-97.737245,78751
1058,1058,Sunshine Station (NB),30.316434,-97.735717,78751
1059,1059,4801 Sunshine (Criss Cole Rehab),30.317382,-97.735114,78751
1060,1060,1100 49th/Grover,30.318791,-97.736647,78756
1061,1061,1200 51st/Grover,30.320707,-97.735989,78756
1062,1062,5113 Woodrow/North,30.322371,-97.736892,78756
1063,1063,5223 Woodrow/North Loop,30.324061,-97.735824,78756
1064,1064,5413 Woodrow/Houston,30.326186,-97.734482,78756
1065,1065,5515 Woodrow/Houston,30.327565,-97.733603,78756
1066,1066,5701 Woodrow/Theckla,30.329034,-97.732673,78756
1067,1067,5819 Woodrow/Koenig,30.330737,-97.73158,78756
1068,1068,Woodrow/Alguno,30.332811,-97.730682,78757
1069,1069,Woodrow/Alegria,30.334573,-97.730128,78757
1070,1070,6523 Woodrow/Brentwood,30.337279,-97.72842,78757
1072,1072,Woodrow/Dwyce,30.340171,-97.726594,78757
1074,1074,7115 Woodrow/Piedmont,30.342849,-97.724984,78757
1075,1075,Woodrow/Pasadena,30.344977,-97.72521,78757
1076,1076,Woodrow/Morrow,30.34743,-97.723761,78757
1077,1077,7717 Woodrow/Princeton,30.34989,-97.72302,78757
1078,1078,1700 Anderson/Wooten Park,30.35279,-97.72362,78757
1080,1080,Anderson/Mullen,30.35401,-97.72622,78757
1084,1084,4000 Tannehill/Jackie Robinson,30.27639,-97.676033,78721
1085,1085,Jackie Robinson/Delano,30.276588,-97.67835,78721
1089,1089,1420 Webberville/Fort Branch,30.27989,-97.681063,78721
1090,1090,Webberville/Ribbecke,30.279255,-97.683196,78721
1091,1091,12th/Webberville,30.278361,-97.685478,78721
1092,1092,4600 12th/Springdale,30.278941,-97.686682,78721
1093,1093,12th/Cometa,30.278639,-97.689538,78721
1094,1094,3522 12th/E M Franklin,30.277864,-97.694461,78721
1096,1096,3250 12th/Airport,30.276978,-97.700178,78721
1097,1097,3100 12th/McKinley,30.276654,-97.702258,78702
1098,1098,12th/Harvey,30.276346,-97.70424,78702
1099,1099,2900 12th/Alexander,30.275723,-97.708093,78702
1100,1100,2730 12th/New York,30.275351,-97.710464,78702
1101,1101,12th/Cedar,30.274879,-97.713399,78702
1102,1102,2204 12th/Chestnut,30.27439,-97.716486,78702
1103,1103,1914 12th/Chicon,30.273963,-97.719142,78702
1105,1105,1700 12th/Leona,30.273521,-97.72187,78702
1106,1106,1400 12th/Angelina,30.273059,-97.7249,78702
1107,1107,1220 12th/San Bernard,30.272727,-97.726844,78702
1109,1109,12th/IH-35,30.272088,-97.730842,78702
1114,1114,12th/Navasota,30.272434,-97.727844,78702
1118,1118,1819 12th/Chicon,30.273695,-97.720001,78702
1121,1121,2601 12th/Cedar,30.274815,-97.712846,78702
1122,1122,2733 12th/New York,30.275203,-97.710441,78702
1123,1123,2863 12th/Alexander,30.275533,-97.708349,78702
1124,1124,2917 12th/Hargrave,30.275868,-97.706343,78702
1125,1125,3021 12th/McKinley,30.276474,-97.702363,78702
1126,1126,3245 12th/Airport,30.276731,-97.700547,78702
1127,1127,3403 12th/Greenwood,30.277301,-97.697085,78721
1128,1128,3525 12th/E M Franklin,30.277722,-97.694402,78721
1130,1130,1201 Webberville/12th,30.278282,-97.684544,78721
1131,1131,1401 Webberville/Ribbecke,30.279406,-97.682614,78721
1132,1132,1419 Webberville/Fort Branch,30.279744,-97.680966,78721
1137,1137,3811 Tannehill/Jackie Robinson,30.276584,-97.675697,78721
1138,1138,4021 Tannehill/Samuel Huston,30.279192,-97.673977,78721
1141,1141,1200 Rundberg/Teasdale,30.354111,-97.681289,78753
1142,1142,Rundberg/Hansford,30.355637,-97.68363,78753
1143,1143,838 Rundberg/Middle Fiskville,30.357219,-97.685998,78753
1148,1148,Georgian/Home Pl.,30.355832,-97.696474,78753
1149,1149,Georgian/Elliott,30.353289,-97.699042,78753
1150,1150,Georgian/Jennifer,30.349752,-97.702016,78753
1151,1151,Georgian/Powell,30.347697,-97.703234,78753
1152,1152,8000 Georgian/Anderson,30.344902,-97.704659,78753
1153,1153,7700 Northcrest/Anderson,30.34336,-97.705878,78753
1156,1156,Crestland/Meadowview,30.339681,-97.711761,78752
1157,1157,7414 Guadalupe/Crestland,30.339901,-97.713146,78752
1158,1158,7106 Guadalupe/St Johns,30.337324,-97.714833,78752
1159,1159,Guadalupe/Swanee,30.335705,-97.715903,78752
1160,1160,105 Highland Mall/Jonathan,30.328491,-97.713603,78752
1164,1164,5600 Avenue F/56th,30.321167,-97.718996,78752
1168,1168,Duval/51st,30.314362,-97.719922,78751
1169,1169,Duval/48th,30.310968,-97.722129,78751
1171,1171,Duval/43rd,30.30438,-97.726357,78751
1172,1172,4002 Duval/41st,30.301674,-97.728038,78751
1174,1174,Duval/33rd,30.295649,-97.731832,78705
1175,1175,3200 Duval/32nd,30.294603,-97.732495,78705
1176,1176,Duval/30th,30.291876,-97.734222,78705
1177,1177,San Jacinto/Dean Keeton NW Corner,30.289599,-97.734686,78705
1178,1178,2324 San Jacinto/24th,30.28671,-97.733652,78705
1179,1179,2300 San Jacinto/23rd,30.285506,-97.733782,78705
1180,1180,2100 San Jacinto/21st,30.283362,-97.734165,78705
1186,1186,715 Riverside/Alameda,30.250734,-97.74061,78704
1187,1187,1005 East Riverside/Travis Heights,30.249589,-97.738348,78704
1188,1188,Riverside/Kenwood,30.248592,-97.736886,78704
1190,1190,1724 Burton/Woodland,30.236152,-97.728459,78741
1191,1191,1920 Burton/Mariposa,30.233861,-97.731812,78741
1193,1193,2310 Parker/Oltorf,30.231874,-97.737285,78741
1194,1194,2504 Parker/Braxton,30.229929,-97.738557,78741
1195,1195,2718 Parker/Royal Hill,30.227504,-97.740505,78741
1199,1199,Woodward/Ben White NW Corner,30.217147,-97.744042,78741
1202,1202,Freidrich/Directors,30.212493,-97.748209,78744
1203,1203,4600 Freidrich/St Elmo,30.208183,-97.750908,78744
1204,1204,Teri/Freidrich,30.202831,-97.753472,78744
1212,1212,5406 Pleasant Valley/Village,30.193289,-97.744743,78744
1213,1213,5802 Pleasant Valley/Leatherleaf,30.188889,-97.745545,78744
1214,1214,6100 Pleasant Valley/Dove Springs,30.185358,-97.745648,78744
1215,1215,6406 Pleasant Valley/Creek Bend,30.182114,-97.746097,78744
1219,1219,6107 Pleasant Valley/Turnstone,30.185198,-97.745196,78744
1220,1220,5803 Pleasant Valley/Village Square,30.188891,-97.74529,78744
1221,1221,5505 Pleasant Valley/Palo Blanco,30.192229,-97.744496,78744
1222,1222,4621 Stassney/Pleasant Valley,30.193067,-97.74451,78744
1223,1223,2522 Stassney/Chaparral,30.193919,-97.747016,78744
1224,1224,2408 Stassney/Palo Blanco,30.193714,-97.750685,78744
1228,1228,2008 Teri/Pepper,30.202365,-97.752499,78744
1229,1229,4801 Freidrich/Teri,30.204466,-97.753036,78744
1230,1230,4601 Freidrich/City Yard,30.208174,-97.750684,78744
1231,1231,4217 Freidrich/St Elmo,30.211335,-97.748705,78744
1232,1232,4115 Freidrich/Woodward,30.213484,-97.746116,78744
1233,1233,Woodward/Ben White SE Corner,30.215081,-97.744146,78741
1235,1235,1901 Woodward/Parker,30.219456,-97.743789,78741
1237,1237,3101 Parker/Wickshire,30.224517,-97.742158,78741
1238,1238,2801 Parker/Royal Hill,30.227381,-97.740387,78741
1239,1239,2501 Parker/Braxton,30.230144,-97.7382,78741
1240,1240,2301 Parker/Oltorf,30.232116,-97.736934,78741
1242,1242,2001 Burton/Mariposa,30.233411,-97.731925,78741
1243,1243,Burton/Valley Hill Cir.,30.23436,-97.730784,78741
1244,1244,1801 Burton/Woodland,30.235764,-97.72851,78741
1246,1246,1000 East Riverside/Travis Heights,30.249906,-97.738594,78704
1249,1249,150 Riverside/Newning,30.255868,-97.74546,78704
1253,1253,2031 San Jacinto/21st,30.283104,-97.73391,78705
1256,1256,2525 San Jacinto/Dean Keeton,30.288776,-97.734397,78705
1257,1257,Duval/Bellevue,30.292127,-97.733917,78705
1258,1258,Duval/32nd,30.293384,-97.733108,78705
1259,1259,Duval/Harris,30.29591,-97.73149,78705
1260,1260,3717 Duval/38th,30.298515,-97.729831,78705
1261,1261,4017 Duval/41st,30.30214,-97.727604,78751
1262,1262,Duval/Park,30.304132,-97.726358,78751
1263,1263,4433 Duval/45th,30.306896,-97.724576,78751
1264,1264,4533 Duval/45th,30.308301,-97.723678,78751
1265,1265,4803 Duval/48th Street,30.311174,-97.721789,78751
1267,1267,Duval/Bruning,30.314435,-97.719695,78751
1271,1271,5613 Avenue F/Koenig,30.321598,-97.71873,78752
1273,1273,6902 Airport Blvd/Guadalupe,30.333977,-97.716818,78752
1274,1274,Guadalupe/Kennistson,30.334694,-97.716377,78752
1275,1275,7125 Guadalupe/St Johns,30.337671,-97.714427,78752
1276,1276,7417 Guadalupe/Crestland,30.339996,-97.712898,78752
1278,1278,7601 Northcrest/Prairie Dell,30.340632,-97.708421,78752
1282,1282,Georgian/Red Oak,30.349494,-97.702006,78753
1283,1283,Georgian/Walnut,30.351297,-97.700509,78753
1284,1284,Georgian/Little Walnut,30.353431,-97.698728,78753
1285,1285,Georgian/Home Place,30.356009,-97.696169,78753
1286,1286,9013 Georgian/Fawnridge,30.358122,-97.694809,78753
1289,1289,307 Rundberg/North Creek,30.360039,-97.692027,78753
1290,1290,829 Rundberg/Middle Fiskville,30.357385,-97.686663,78753
1296,1296,7346 Lamar/Sugaree,30.34127,-97.71682,78752
1307,1307,1041 St Johns/Meador,30.32904,-97.69637,78752
1308,1308,1127 St Johns/Grand Canyon,30.32813,-97.69448,78752
1313,1313,Berkman/US 290 NW Corner,30.3223,-97.68924,78752
1316,1316,6208 Berkman/Glen Valley,30.316451,-97.691223,78723
1318,1318,5810 Berkman/Sweetbriar,30.312311,-97.693666,78723
1319,1319,Berkman/Cloverleaf,30.309342,-97.695539,78723
1330,1330,4612 Springdale/Touchstone,30.289603,-97.680296,78723
1331,1331,4300 Springdale/Martin Luther King,30.286134,-97.682608,78723
1332,1332,Springdale/Oak Cliff,30.285006,-97.683281,78721
1333,1333,Springdale/Kitty,30.283131,-97.684516,78721
1334,1334,Springdale/Glomar,30.281879,-97.685305,78721
1335,1335,1200 Springdale/12th,30.279234,-97.686965,78721
1336,1336,1150 Springdale/Webberville,30.276735,-97.688489,78721
1337,1337,1106 Springdale/Ledesma,30.274303,-97.69009,78721
1338,1338,1050 Springdale/Prock,30.270901,-97.692225,78721
1339,1339,1018 Springdale/Goodwin,30.267579,-97.694349,78721
1340,1340,1006 Springdale/Airport,30.266136,-97.695276,78721
1341,1341,3600 Govalle/Gunter,30.264829,-97.698664,78702
1342,1342,3200 Govalle/Tillery,30.26602,-97.70202,78702
1344,1344,Govalle/Webberville,30.2677,-97.70687,78702
1346,1346,850 Pleasant Valley/Webberville,30.26516,-97.70881,78702
1347,1347,820 Pleasant Valley/Lyons,30.26365,-97.70834,78702
1349,1349,650 Pleasant Valley/7th,30.259735,-97.709729,78702
1352,1352,104 Pleasant Valley/Cesar Chavez,30.253275,-97.712766,78702
1353,1353,1108 Pleasant Valley/Lakeshore,30.242025,-97.717608,78741
1356,1356,2502 Oltorf/Pleasant Valley,30.227843,-97.728279,78741
1358,1358,2030 Oltorf/Willow Creek,30.230518,-97.732354,78741
1359,1359,2201 Burton/Oltorf,30.231208,-97.73355,78741
1361,1361,Burton/Riverside,30.239196,-97.727578,78741
1363,1363,Elmont/Pleasant Valley,30.239077,-97.720327,78741
1364,1364,1100 Pleasant Valley/Lakeshore,30.242291,-97.717206,78741
1365,1365,517 Pleasant Valley (Krieg Field),30.245846,-97.714948,78741
1366,1366,Pleasant Valley/2nd,30.25371,-97.712369,78702
1367,1367,301 Pleasant Valley/3rd,30.255151,-97.7117,78702
1368,1368,501 Pleasant Valley/5th,30.257418,-97.710603,78702
1369,1369,651 Pleasant Valley/7th,30.259906,-97.709468,78702
1372,1372,819 Pleasant Valley/Lyons,30.263527,-97.708225,78702
1373,1373,851 Pleasant Valley/Webberville,30.2653,-97.70876,78702
1377,1377,3601 Govalle/Gunter,30.264616,-97.698463,78702
1379,1379,1017 Springdale/Goodwin,30.267244,-97.694388,78721
1381,1381,1053 Springdale/Prock,30.27106,-97.69193,78721
1382,1382,1107 Springdale/Ledesma,30.274299,-97.689894,78721
1383,1383,1161 Springdale/Webberville,30.277096,-97.688064,78721
1384,1384,1207 Springdale/12th,30.279924,-97.686346,78721
1385,1385,Springdale/Leslie,30.282374,-97.684815,78721
1386,1386,Springdale/Bandera,30.283988,-97.683748,78721
1387,1387,1819 Springdale/Martin Luther King,30.28557,-97.68273,78721
1396,1396,Berkman/Larkwood,30.31036,-97.69473,78723
1398,1398,6001 Berkman/Briarcliff,30.314786,-97.692049,78723
1399,1399,6207 Berkman/Glen Valley,30.31646,-97.691029,78723
1400,1400,6509 Berkman/Wheless,30.318728,-97.689634,78723
1401,1401,Berkman/US 290 SE Corner,30.320741,-97.688771,78723
1402,1402,Berkman/US 290 NE Corner,30.32244,-97.68899,78752
1407,1407,7200 Cameron/St Johns,30.32629,-97.69233,78752
1408,1408,1034 St Johns/Meador,30.32925,-97.69644,78752
1409,1409,1008 St Johns/Bethune,30.33032,-97.69854,78752
1410,1410,900 St Johns/Bennett,30.331594,-97.701247,78752
1412,1412,7100 Roland Johnson/St Johns,30.333174,-97.706079,78752
1413,1413,6970 Roland Johnson/Huntland,30.330907,-97.706983,78752
1414,1414,300 Huntland/Brenda,30.330854,-97.710681,78752
1415,1415,6500 Jonathan Dr (Highland Mall),30.328767,-97.713056,78752
1417,1417,7401 Lamar/St Johns,30.341113,-97.716607,78752
1423,1423,Exposition/Warren,30.309551,-97.762879,78703
1424,1424,Exposition/Mountain Laurel,30.307628,-97.763402,78703
1425,1425,Exposition/Northwood,30.305496,-97.764927,78703
1426,1426,2728 Exposition (Casis Elementary),30.30379,-97.764542,78703
1440,1440,2525 Enfield/Norwalk,30.289983,-97.7712,78703
1444,1444,1801 Enfield/Hartford,30.284786,-97.762233,78703
1446,1446,1603 Enfield/West Lynn,30.282771,-97.758105,78703
1465,1465,Oltorf/Alta Vista,30.23632,-97.74719,78704
1466,1466,1101 Oltorf/Alta Vista,30.235651,-97.745688,78704
1467,1467,1313 Oltorf/Schriber,30.234202,-97.743018,78704
1474,1474,1605 Oltorf/IH 35,30.23322,-97.739459,78741
1475,1475,1747 Oltorf/Parker,30.232279,-97.737098,78741
1494,1494,710 Oltorf/East Side,30.23677,-97.748611,78704
1504,1504,324 12th/Guadalupe,30.274749,-97.74333,78701
1511,1511,Enfield/Pease,30.283102,-97.758934,78703
1513,1513,1728 Enfield/Hartford,30.28462,-97.761717,78703
1517,1517,2600 Enfield/Norwalk,30.29028,-97.771413,78703
1519,1519,Enfield/Hopi,30.292411,-97.775684,78703
1540,1540,6594 1st/William Cannon,30.197445,-97.7875,78745
1541,1541,6403 S 1st/Eberhart,30.200331,-97.785673,78745
1542,1542,6001 S 1st/Flournoy,30.203634,-97.783793,78745
1543,1543,5803 South 1st/Flournoy,30.205408,-97.782945,78745
1545,1545,5201 S 1st/Ramble,30.211573,-97.779025,78745
1546,1546,5001 S 1st/Emerald Wood,30.213276,-97.778011,78745
1547,1547,4901 S 1st/Heartwood,30.214438,-97.776945,78745
1548,1548,4617 S 1st/Orland,30.216799,-97.775454,78745
1549,1549,4401 S 1st/St Elmo,30.220937,-97.772909,78745
1550,1550,4217 S 1st/Radam,30.223688,-97.771174,78745
1553,1553,3811 S 1st/Krebs,30.227804,-97.76856,78704
1554,1554,3715 1st/South Center,30.229626,-97.767469,78704
1555,1555,3505 S 1st/Alpine,30.231309,-97.766349,78704
1556,1556,3205 S 1st/South Park,30.232951,-97.765303,78704
1557,1557,3001 S 1st/Powell,30.235094,-97.763975,78704
1558,1558,2701 S 1st/Cumberland,30.238061,-97.762106,78704
1559,1559,2529 S 1st/Herndon,30.239949,-97.760859,78704
1560,1560,2401 S 1st/Oltorf,30.24193,-97.759656,78704
1561,1561,2201 S 1st/Live Oak,30.244369,-97.757657,78704
1562,1562,1801 S 1st/Annie,30.247241,-97.755836,78704
1564,1564,1001 S 1st/Copeland,30.253611,-97.75294,78704
1565,1565,615 South 1st/Copeland,30.256192,-97.751284,78704
1566,1566,505 S 1st/Barton Springs,30.258137,-97.750069,78704
1577,1577,Dean Keeton/Dancy,30.285195,-97.722898,78722
1578,1578,2219 Manor/Chestnut,30.284354,-97.718269,78722
1579,1579,2515 Manor/Stafford,30.28478,-97.715568,78722
1580,1580,2709 Manor/Walnut,30.285091,-97.71357,78722
1581,1581,2803 Manor/Merrie Lynn,30.28535,-97.711918,78722
1582,1582,Manor/Alexander,30.285647,-97.709889,78722
1583,1583,2963 Manor/Rountree,30.286087,-97.70702,78722
1588,1588,Morris Williams Golf Course,30.290077,-97.694633,78723
1589,1589,4601 Manor/Lovell,30.292793,-97.689207,78723
1590,1590,5005 Manor/Manor Circle,30.297048,-97.687528,78723
1591,1591,5029 Manor/51st,30.297974,-97.687047,78723
1592,1592,Manor/Pecan Springs,30.301198,-97.684791,78723
1593,1593,5503 Manor/Pecan Springs,30.302505,-97.683408,78723
1594,1594,5711 Manor/Rogge,30.305088,-97.68083,78723
1595,1595,5819 Manor/Sweeney,30.30631,-97.680068,78723
1597,1597,6211 Manor/Walnut Hills,30.307941,-97.675228,78723
1598,1598,6303 Manor/Reicher,30.308004,-97.672645,78723
1599,1599,6311 Manor/Northeast,30.308382,-97.671054,78723
1600,1600,6699 Manor/Loyola,30.30992,-97.66719,78723
1601,1601,7033 Manor/Susquehanna,30.312849,-97.665031,78723
1603,1603,4601 Pecan Brook/Manor,30.318321,-97.660799,78724
1604,1604,5109 Pecan Brook/Chisos Pass,30.315551,-97.657848,78724
1606,1606,5513 Pecan Brook/Tumbleweed,30.313182,-97.653153,78724
1607,1607,5721 Pecan Brook/Crystalbrook,30.31198,-97.65062,78724
1608,1608,7008 Crystalbrook/Purple Sage,30.308,-97.652679,78724
1614,1614,7109 Crystalbrook/Purple Sage,30.308573,-97.652374,78724
1615,1615,5600 Pecan Brook/Tumbleweed,30.313092,-97.652605,78724
1616,1616,5300 Pecan Brook/Uray,30.314638,-97.655825,78724
1617,1617,5110 Pecan Brook/Chisos Pass,30.31556,-97.65762,78724
1618,1618,4600 Pecan Brook/Manor,30.318264,-97.660357,78724
1619,1619,7000 Manor/Susquehanna,30.313865,-97.664697,78723
1621,1621,6650 Manor/Loyola,30.310003,-97.667482,78723
1622,1622,6400 Manor/Northeast,30.3085,-97.671213,78723
1623,1623,6300 Manor/Reicher,30.30814,-97.672813,78723
1624,1624,6118 Manor/Walnut Hills,30.308098,-97.676444,78723
1625,1625,6102 Manor/Wheeless,30.307941,-97.678194,78723
1626,1626,5900 Manor/Sweeney,30.30659,-97.680101,78723
1627,1627,5700 Manor/Rogge,30.30471,-97.68131,78723
1629,1629,Manor/Wellington,30.30115,-97.685058,78723
1631,1631,5100 Manor/51st,30.298362,-97.68702,78723
1632,1632,Manor/Manor Circle,30.297014,-97.687716,78723
1633,1633,4500 Manor/Lovell,30.29216,-97.689382,78723
1635,1635,3600 Manor/Pershing,30.28934,-97.698275,78723
1636,1636,Manor/Anchor,30.287728,-97.701113,78723
1638,1638,2948 Manor/Banton,30.286111,-97.707942,78722
1639,1639,Manor/Randolph,30.285663,-97.710921,78722
1640,1640,Manor/Walnut,30.285159,-97.714104,78722
1642,1642,2314 Manor/Maple,30.284672,-97.717292,78722
1643,1643,Dean Keeton/French,30.284134,-97.720595,78722
1644,1644,Dean Keeton/Dancy NE Corner,30.285273,-97.722452,78722
1655,1655,400 S 1st/Riverside,30.259308,-97.749759,78704
1656,1656,500 S 1st/Barton Springs,30.258081,-97.750396,78704
1657,1657,614 South 1st/Barton Springs,30.256619,-97.751224,78704
1659,1659,1214 S 1st/Gibson,30.251662,-97.754362,78704
1661,1661,1720 S 1st/Annie,30.247569,-97.755862,78704
1662,1662,2112 S 1st/Live Oak,30.244645,-97.757707,78704
1663,1663,2324 S 1st/Oltorf,30.242264,-97.759614,78704
1664,1664,2522 S 1st/Herndon,30.239755,-97.761235,78704
1665,1665,2904 S 1st/Sacramento,30.236209,-97.763482,78704
1666,1666,3014 S 1st/Peacock,30.234537,-97.764504,78704
1667,1667,3310 S 1st/Cardinal,30.232131,-97.766035,78704
1668,1668,3508 S 1st/Alpine,30.230904,-97.766781,78704
1669,1669,3808 S 1st/Post Road,30.228459,-97.768348,78704
1671,1671,4104 S 1st/Ben White,30.225333,-97.770328,78745
1672,1672,4220 S 1st/Clifford,30.223353,-97.771567,78745
1673,1673,4326 S 1st/St Elmo,30.221255,-97.772893,78745
1674,1674,4530 S 1st/Philco,30.218151,-97.774823,78745
1676,1676,5000 S 1st/Emerald Wood,30.213437,-97.778077,78745
1678,1678,5400 S 1st/Arbor Circle,30.210434,-97.780019,78745
1681,1681,6106 S 1st/Blueberry,30.202421,-97.784596,78745
1682,1682,6400 S 1st/Eberhart,30.200712,-97.785683,78745
1683,1683,6502 S 1st/King Edward,30.199208,-97.786609,78745
1685,1685,William Cannon/Cooper,30.198565,-97.790913,78745
1686,1686,William Cannon/Emerald Forest,30.199334,-97.793354,78745
1701,1701,4400 Red River/44th,30.303378,-97.72062,78751
1703,1703,4000 Red River/40th,30.298607,-97.722783,78751
1704,1704,Red River/38th,30.29576,-97.723443,78751
1706,1706,3100 Red River/32nd,30.290572,-97.727389,78705
1718,1718,604 Barton Springs/1st,30.258711,-97.750773,78704
1720,1720,710 Bouldin/Retama,30.257201,-97.755051,78704
1721,1721,1006 Bouldin/Columbus,30.254688,-97.756456,78704
1722,1722,1316 Bouldin/Elizabeth,30.252323,-97.757885,78704
1723,1723,1514 Bouldin/Monroe,30.250809,-97.758737,78704
1724,1724,Bouldin/Annie,30.24878,-97.759825,78704
1725,1725,Annie/5th,30.249232,-97.761383,78704
1726,1726,1816 S 5th/Mary,30.248451,-97.762069,78704
1730,1730,5th/Cumberland,30.239991,-97.766028,78704
1731,1731,1010 Cumberland/5th,30.240685,-97.767903,78704
1732,1732,2714 Raywood/Locke,30.240225,-97.769008,78704
1733,1733,2866 Raywood/Weathers,30.238767,-97.769729,78704
1734,1734,1003 Barton Skyway/Garden Villa,30.235922,-97.769523,78704
1735,1735,3400 Garden Villa/Cardinal,30.234267,-97.771044,78704
1736,1736,Garden Villa/South Center NW Corner,30.231869,-97.772554,78704
1737,1737,Garden Villa/Banister,30.229371,-97.774161,78704
1741,1741,4402 Banister/Casey,30.225327,-97.781084,78745
1742,1742,Redd/Gillis,30.224112,-97.783447,78745
1743,1743,Redd/Clawson,30.225828,-97.78604,78745
1744,1744,1918 Redd/Menchaca,30.228227,-97.789189,78745
1745,1745,Redd/Cactus,30.22897,-97.79075,78745
1746,1746,2222 Western Trails/Pack Saddle,30.230411,-97.793637,78745
1747,1747,2422 Western Trails/Roundup,30.229929,-97.796179,78745
1748,1748,2554 Western Trails/Tejas Trail,30.230226,-97.79767,78745
1750,1750,US 290/Mopac (Walmart),30.233365,-97.82142,78749
1754,1754,Western Trails/Roundup,30.229704,-97.796366,78745
1756,1756,2001 Redd/Menchaca,30.228309,-97.789635,78745
1757,1757,Redd/Russell,30.227114,-97.787154,78745
1759,1759,1301 Redd/Gillis,30.223675,-97.782793,78745
1760,1760,4309 Banister/Casey,30.225706,-97.780674,78704
1761,1761,Banister/Ben White SE Corner,30.22729,-97.779633,78745
1762,1762,Banister/Summer Oaks,30.229708,-97.777993,78704
1763,1763,3803 Garden Villa/Banister,30.230185,-97.773487,78704
1764,1764,Garden Villa/South Center,30.231689,-97.772529,78704
1766,1766,3401 Garden Villa/Cardinal,30.23427,-97.77089,78704
1767,1767,1008 Barton Skyway/Locke,30.236267,-97.769888,78704
1768,1768,2901 Raywood/Weathers,30.238523,-97.769749,78704
1769,1769,2801 Raywood/Locke,30.239921,-97.769036,78704
1770,1770,Cumberland/S. 5th,30.239818,-97.766179,78704
1772,1772,S. 5th/Live Oak,30.2461,-97.763411,78704
1773,1773,1901 S 5th/Mary,30.248199,-97.762089,78704
1774,1774,Annie/Bouldin,30.248678,-97.759937,78704
1775,1775,1601 Bouldin/Monroe,30.250582,-97.758707,78704
1776,1776,1401 Bouldin/Elizabeth,30.252104,-97.757885,78704
1778,1778,1007 Bouldin/Columbus,30.254593,-97.756351,78704
1779,1779,703 Bouldin/Post Oak,30.257521,-97.754706,78704
1780,1780,501 Bouldin/Barton Springs,30.259371,-97.753515,78704
1781,1781,215 Cesar Chavez/Lavaca,30.263819,-97.746366,78701
1784,1784,3805 Red River/38th Half,30.296366,-97.723097,78705
1785,1785,3923 Red River/40th,30.298741,-97.722544,78751
1787,1787,4309 Red River/44th,30.303319,-97.720483,78751
1794,1794,Airport/52nd,30.312952,-97.715184,78751
1795,1795,5315 Airport/53rd Half,30.314806,-97.714617,78751
1796,1796,5617 Airport/Koenig,30.31844,-97.712869,78751
1797,1797,5815 Airport/Koenig,30.322861,-97.714898,78752
1799,1799,1003 Cesar Chavez/San Marcos,30.260385,-97.734196,78702
1801,1801,1403 Cesar Chavez/Navasota,30.25899,-97.73018,78702
1802,1802,1605 Cesar Chavez/Comal,30.258279,-97.728156,78702
1822,1822,Gardner/Jain Ln.,30.259882,-97.681633,78721
1847,1847,1600 Cesar Chavez/Comal,30.25853,-97.72848,78702
1848,1848,1400 Cesar Chavez/Navasota,30.259225,-97.730508,78702
1849,1849,1200 Cesar Chavez/Waller,30.259911,-97.732463,78702
1850,1850,1000 Cesar Chavez/San Marcos,30.260578,-97.73438,78702
1864,1864,3513 Jefferson/35th,30.30833,-97.751132,78731
1866,1866,Bull Creek/39th,30.311658,-97.752215,78731
1871,1871,4419 Bull Creek/45th,30.320398,-97.753471,78731
1874,1874,5001 Bull Creek/Fresco,30.326566,-97.749702,78731
1876,1876,2824 Hancock/Bull Creek,30.328576,-97.750935,78731
1877,1877,Hancock/Frances Place,30.329875,-97.753562,78731
1878,1878,3306 Hancock/Balcones,30.332741,-97.759601,78731
1879,1879,Balcones/Parkcrest,30.336139,-97.75796,78731
1882,1882,6101 Balcones/Northland,30.34337,-97.75318,78731
1884,1884,6805 Wood Hollow/North Hills,30.350884,-97.754614,78731
1885,1885,Wood Hollow/Far West NE Corner,30.35377,-97.75282,78731
1886,1886,7131 Wood Hollow/Far West,30.355387,-97.75181,78731
1887,1887,3536 Greystone/Wood Hollow,30.35839,-97.75136,78731
1888,1888,3614 Greystone/Hart,30.35882,-97.75363,78731
1890,1890,7503 Mesa/Greystone,30.36499,-97.76295,78731
1891,1891,Mesa/Myrick,30.36829,-97.75911,78731
1892,1892,8045 Mesa/Spicewood Springs,30.37133,-97.757205,78759
1893,1893,4039 Steck/Mesa,30.37404,-97.75497,78759
1894,1894,3933 Steck/Spicewood,30.373071,-97.752995,78759
1895,1895,3813 Steck/Greenslope,30.37266,-97.74893,78759
1896,1896,Steck/Forest Mesa,30.37077,-97.746856,78759
1897,1897,3605 Steck/Forest Mesa,30.36958,-97.74562,78759
1898,1898,3519 Steck/Mopac,30.36875,-97.74387,78759
1899,1899,3305 Steck/Mopac,30.366743,-97.739675,78757
1900,1900,Rockwood/Steck,30.36436,-97.73534,78757
1902,1902,7920 Rockwood/Ashdale,30.360677,-97.737737,78757
1904,1904,7921 Rockwood/Anderson,30.36084,-97.73743,78757
1906,1906,Steck/Sandalwood,30.364974,-97.735546,78757
1907,1907,3400 Steck/Shoal Creek,30.366965,-97.739674,78757
1909,1909,Steck/Mopac,30.368976,-97.743943,78759
1910,1910,Steck/Summerside,30.37058,-97.7466,78759
1911,1911,3822 Steck/Greenslope,30.37292,-97.74917,78759
1912,1912,3924 Steck/Spicewood,30.373226,-97.752979,78759
1913,1913,8140 Mesa/Steck,30.37377,-97.756008,78759
1914,1914,8038 Mesa/Spicewood Springs,30.371,-97.75759,78759
1917,1917,3807 Greystone/Chimney Corners,30.36082,-97.75738,78731
1918,1918,3615 Greystone/Hart,30.35865,-97.75363,78731
1919,1919,7400 Wood Hollow/Greystone,30.35775,-97.75079,78731
1920,1920,7200 Wood Hollow/Greystone,30.35517,-97.75214,78731
1921,1921,Wood Hollow/Far West NW Corner,30.3536,-97.75311,78731
1922,1922,6714 Wood Hollow/Far West,30.35077,-97.75486,78731
1923,1923,North Hills/Valleyside SE Corner,30.34881,-97.75377,78731
1925,1925,5758 Balcones/Hart,30.339599,-97.755793,78731
1927,1927,3313 Hancock/Balcones,30.332659,-97.7597,78731
1928,1928,Hancock/Valley Oak,30.331464,-97.75715,78731
1929,1929,Hancock/West Frances Place,30.329566,-97.753292,78731
1930,1930,2825 Hancock/Fresco,30.32806,-97.75024,78731
1931,1931,Bull Creek/Hancock,30.327267,-97.749435,78731
1932,1932,4748 Bull Creek/49th,30.324792,-97.750945,78731
1933,1933,4700 Bull Creek/Perry,30.323211,-97.75192,78731
1935,1935,4318 Bull Creek/44th,30.318162,-97.755038,78731
1936,1936,4220 Bull Creek/Jackson,30.316658,-97.754834,78731
1938,1938,Bull Creek/38th,30.311138,-97.752058,78731
1939,1939,3604 Bull Creek/Jefferson,30.309399,-97.750954,78731
1957,1957,Health Center WB,30.252658,-97.734242,78702
1959,1959,59 Waller/Holly,30.25619,-97.73426,78702
1966,1966,6th/Guadalupe,30.269079,-97.746086,78701
1970,1970,842 6th/Wood,30.270962,-97.752215,78703
1971,1971,6th/Baylor,30.271955,-97.754879,78703
1972,1972,1208 6th/Harthan,30.273061,-97.757846,78703
1973,1973,6th/Pressler,30.273935,-97.760118,78703
1974,1974,6th/West Lynn,30.274836,-97.762509,78703
1977,1977,Veterans/Atlanta,30.276121,-97.771658,78703
1981,1981,Lake Austin/7th,30.282319,-97.776058,78703
1983,1983,Exposition/10th,30.285795,-97.774994,78703
1984,1984,Exposition/12th,30.28766,-97.773815,78703
1985,1985,Exposition/Enfield SE Corner,30.290414,-97.772089,78703
1996,1996,35th/Jefferson,30.30776,-97.7519,78731
1997,1997,35th/Crawford,30.30713,-97.74927,78731
1998,1998,1301 W 38th/Tonkawa,30.30646,-97.74609,78705
1999,1999,38th/Medical Parkway,30.305323,-97.74376,78705
2003,2003,2900 Guadalupe/29th,30.295655,-97.742752,78705
2004,2004,307 Dean Keeton/San Jacinto,30.289202,-97.734866,78705
2005,2005,701 Dean Keeton/San Jacinto,30.289093,-97.73154,78705
2006,2006,Dean Keeton/Robert Dedman,30.28783,-97.728643,78705
2012,2012,1101 38th Half/Robinson,30.294337,-97.718708,78722
2013,2013,1405 38th Half/Clarkson,30.2927,-97.71574,78722
2014,2014,38th 1/2 /Cherrywood,30.291308,-97.713951,78722
2015,2015,Cherrywood/32nd,30.286857,-97.716876,78722
2019,2019,Lafayette/Manor,30.283897,-97.722231,78722
2020,2020,2012 Chicon/21st,30.281539,-97.721679,78722
2021,2021,1810 Chicon/Martin Luther King,30.279458,-97.721226,78702
2022,2022,Chicon/16th,30.276889,-97.720647,78702
2023,2023,Chicon/13th,30.274873,-97.720216,78702
2024,2024,1196 Chicon/12th,30.273484,-97.71992,78702
2025,2025,Chicon/New York,30.272537,-97.719729,78702
2026,2026,1150 Chicon/Rosewood,30.269775,-97.719137,78702
2027,2027,Chicon/Cornell,30.268434,-97.719497,78702
2028,2028,Chicon/11th,30.266178,-97.720553,78702
2029,2029,900 Chicon (Huston-Tillotson),30.264536,-97.721293,78702
2030,2030,700 Chicon/7th,30.262761,-97.722107,78702
2032,2032,314 Chicon/4th,30.259509,-97.723601,78702
2033,2033,206 Chicon/2nd,30.258414,-97.724115,78702
2039,2039,1700 Holly/Chalmers,30.25422,-97.728132,78702
2040,2040,1600 Holly/Comal,30.254921,-97.730153,78702
2041,2041,1400 Holly/Navasota,30.255619,-97.732075,78702
2045,2045,45 Waller/Clermont,30.254853,-97.734855,78702
2046,2046,1401 Holly/Navasota,30.255457,-97.73204,78702
2047,2047,1511 Holly/Comal,30.254888,-97.730453,78702
2048,2048,1631 Holly/Chalmers,30.254179,-97.728458,78702
2055,2055,311 Chicon/4th,30.259493,-97.723477,78702
2056,2056,613 Chicon/7th,30.262274,-97.722189,78702
2057,2057,807 Chicon (Huston-Tillotson),30.263956,-97.721408,78702
2058,2058,Chicon/College Row,30.265511,-97.720676,78702
2059,2059,Chicon/Hamilton,30.267474,-97.719768,78702
2060,2060,1143a Chicon/Cornell,30.269044,-97.719058,78702
2061,2061,1155 Chicon/Rosewood,30.270126,-97.719064,78702
2062,2062,Chicon/Pennsylvania,30.27166,-97.719385,78702
2063,2063,1197 Chicon/12th,30.273559,-97.719788,78702
2064,2064,Chicon/14th,30.27565,-97.720224,78702
2065,2065,Chicon/17th,30.2777,-97.72068,78702
2066,2066,1817 Chicon/Martin Luther King,30.279657,-97.721116,78702
2067,2067,2103 Chicon/21st,30.28212,-97.721643,78722
2071,2071,1602 38th Half/Maplewood,30.29213,-97.71425,78722
2077,2077,920 Dean Keeton/Red River,30.287579,-97.727345,78705
2079,2079,Dean Keeton/Speedway NE Corner,30.289563,-97.736629,78705
2086,2086,38th/Bailey,30.306256,-97.745209,78756
2087,2087,1512 35th/Kerbey,30.30722,-97.75014,78731
2088,2088,35th/Lawton,30.308198,-97.752801,78731
2089,2089,35th/Jackson,30.308823,-97.755704,78731
2090,2090,2300 W 35th/Mopac,30.309568,-97.759972,78703
2102,2102,2211 Lake Austin/Veterans,30.27738,-97.77137,78703
2104,2104,5th/Pressler,30.272678,-97.760934,78703
2106,2106,5th/Baylor,30.270977,-97.756406,78703
2107,2107,5th/Bowie,30.269522,-97.752626,78703
2108,2108,5th/West,30.26926,-97.75113,78703
2110,2110,5th/Nueces,30.268672,-97.748979,78701
2111,2111,5th/San Antonio,30.26835,-97.74792,78701
2112,2112,5th/Guadalupe,30.268054,-97.74679,78701
2144,2144,Barton Springs/Barton,30.263834,-97.763936,78704
2145,2145,1619 Barton Springs/Kinney,30.262397,-97.762236,78704
2148,2148,911 Barton Springs/Bouldin,30.25961,-97.753924,78704
2155,2155,910 Barton Springs/Bouldin,30.259787,-97.753879,78704
2157,2157,1218 Barton Springs/Lee Barton,30.260735,-97.757225,78704
2160,2160,1718 Barton Springs/Kinney,30.263215,-97.762789,78704
2169,2169,Woodward/Parker SW Corner,30.219261,-97.743912,78741
2175,2175,South 1st/Ben White,30.22712,-97.769607,78704
2176,2176,1228 Ben White/Banister,30.228181,-97.778886,78704
2177,2177,Ben White/Clawson,30.228725,-97.783791,78704
2181,2181,Walsh Tarlton/Twin Berry,30.26264,-97.808535,78746
2183,2183,1701 Walsh Tarlton/Thousand Oaks,30.266527,-97.806082,78746
2184,2184,1501 Walsh Tarlton/Terrapin,30.268379,-97.804908,78746
2186,2186,1019 Walsh Tarlton/Wilderness,30.272569,-97.801467,78746
2191,2191,Spyglass/Barton Skyway,30.258129,-97.787481,78746
2202,2202,1871 Barton Springs/Azie Morton,30.264485,-97.764399,78704
2206,2206,2220 Barton Springs (Zilker),30.268347,-97.772808,78746
2207,2207,2500 Wallingwood/Bee Caves,30.264934,-97.782988,78746
2212,2212,1500 Walsh Tarlton/Terrapin,30.268486,-97.805071,78746
2213,2213,1614 Walsh Tarlton/Thousand Oaks,30.266895,-97.806086,78746
2214,2214,1916 Walsh Tarlton/Stoneridge,30.26439,-97.807634,78746
2215,2215,Walsh Tarlton/Tamarron,30.261559,-97.80944,78746
2216,2216,4401 Pack Saddle Pass/Ben White,30.231017,-97.792022,78745
2218,2218,1901 Ben White/Merle,30.229072,-97.787515,78745
2220,2220,Ben White/Gillis,30.227405,-97.781573,78704
2221,2221,1301 Ben White/Banister,30.227363,-97.779907,78704
2229,2229,2410 Grove/Montopolis,30.220474,-97.707258,78741
2230,2230,2800 Montopolis/Oltorf,30.216404,-97.709274,78741
2232,2232,6100 Oltorf/Montopolis,30.216576,-97.713186,78741
2233,2233,5500 Oltorf (Attorney General),30.219068,-97.718317,78741
2234,2234,5300 Oltorf/Alvin Devane,30.219811,-97.719866,78741
2235,2235,4820 Oltorf/Sunridge,30.223369,-97.722336,78741
2238,2238,2400 Oltorf/Pleasant Valley,30.228981,-97.729647,78741
2240,2240,1900 Oltorf/Burton,30.231313,-97.735308,78741
2241,2241,1730 Oltorf/Parker,30.232592,-97.737362,78741
2242,2242,1616 E Oltorf,30.233502,-97.739665,78741
2243,2243,1300 Oltorf/Schriber,30.23465,-97.74353,78704
2244,2244,1100 Oltorf/Schriber,30.235895,-97.745863,78704
2246,2246,512 Oltorf/Rebel,30.237484,-97.751288,78704
2249,2249,526 Oltorf/1st,30.242137,-97.759362,78704
2251,2251,910 Oltorf/ South 4th,30.243574,-97.763748,78704
2255,2255,2330 Lamar/Goodrich,30.247258,-97.776176,78704
2260,2260,Oltorf West Station (NB),30.248024,-97.771014,78704
2261,2261,1401 Oltorf/Thornton,30.246668,-97.769395,78704
2262,2262,905 Oltorf/ South 5th,30.24337,-97.763557,78704
2263,2263,539 Oltorf/1st,30.241847,-97.759236,78704
2266,2266,643 Oltorf/East Side,30.23666,-97.74904,78704
2271,2271,2503 Oltorf/Pleasant Valley,30.2275,-97.728071,78741
2273,2273,4527 Oltorf/Wickersham,30.225638,-97.724566,78741
2274,2274,4809 Oltorf/Sunridge,30.223249,-97.72253,78741
2275,2275,5413 Oltorf/Alvin Devane,30.21916,-97.718973,78741
2276,2276,6001 Oltorf/Alvin Devane,30.217485,-97.715504,78741
2277,2277,6101 Oltorf/Alvin Devane,30.216272,-97.71299,78741
2279,2279,2421 Grove/Montopolis,30.220579,-97.707057,78741
2280,2280,Grove/Riverside,30.228217,-97.707046,78741
2281,2281,6701 Wentworth/Loyola,30.293253,-97.631316,78724
2282,2282,Loyola/Colony Loop,30.298093,-97.642592,78724
2287,2287,Colony Park/Loyola,30.29876,-97.64462,78724
2288,2288,6714 Loyola/Sandshof,30.299247,-97.645835,78724
2291,2291,5600 Loyola/Millrace,30.303051,-97.657759,78724
2295,2295,3300 Loyola/Kings Point,30.311577,-97.669075,78723
2296,2296,2900 Loyola/Tulsa,30.314191,-97.673126,78723
2298,2298,2400 Loyola/Roanoke,30.318413,-97.678508,78723
2299,2299,6800 Northeast/Loyola,30.317815,-97.680764,78723
2300,2300,6502 Northeast/North Hampton,30.315093,-97.681362,78723
2302,2302,2006 Gaston Place/Wellington,30.312629,-97.688711,78723
2305,2305,1500 Briarcliff/Belfast,30.315083,-97.694414,78723
2306,2306,5900 Cameron/Clayton,30.317046,-97.700104,78723
2307,2307,5700 Cameron/Reinli,30.315549,-97.701918,78723
2308,2308,5420 Cameron/Corona,30.312939,-97.705293,78723
2312,2312,4120 IH 35/Clarkson,30.299501,-97.717117,78751
2321,2321,500 Lamar/5th,30.270539,-97.754587,78703
2322,2322,220 Lamar/Toomey,30.2631,-97.757876,78704
2324,2324,Lamar Square Station (SB),30.254493,-97.762566,78704
2326,2326,2008 Lamar/Hether,30.249289,-97.767901,78704
2328,2328,Oltorf West Station (SB),30.248028,-97.771756,78704
2329,2329,2638 Lamar/Dickson,30.245471,-97.779927,78704
2331,2331,3000 Lamar/Barton Skyway,30.243186,-97.783077,78704
2334,2334,Brodie Oaks Station (SB),30.236571,-97.792508,78704
2335,2335,4608 West Gate/Lamar,30.230471,-97.800924,78745
2337,2337,4900 West Gate/Choctaw Trail,30.227305,-97.802541,78745
2338,2338,5012 West Gate/Jones,30.225819,-97.803849,78745
2339,2339,5306 West Gate/Indio,30.223145,-97.805582,78745
2340,2340,West Gate/Cherry Creek NW Corner,30.219202,-97.807111,78745
2341,2341,6010 West Gate/Cherry Creek,30.216907,-97.811046,78745
2342,2342,6402 West Gate/Dillion Hill,30.21316,-97.81507,78745
2343,2343,West Gate/Deaton Hill NW Corner,30.210896,-97.814594,78745
2344,2344,6808 West Gate/William Cannon,30.208321,-97.814818,78745
2349,2349,7700 West Gate/Goldbridge,30.199404,-97.822116,78745
2357,2357,7405 West Gate/Grennock,30.201921,-97.818402,78745
2360,2360,West Gate/Berkeley SE Corner,30.208626,-97.814361,78745
2361,2361,West Gate/Aldford SE Corner,30.210706,-97.814332,78745
2362,2362,West Gate/Cornish SE Corner,30.212936,-97.814835,78745
2363,2363,6101 West Gate/Berkett,30.216251,-97.812864,78745
2364,2364,5907 West Gate/Coatbridge,30.217388,-97.809397,78745
2367,2367,5101 West Gate/Jones,30.225438,-97.803848,78745
2370,2370,Brodie Oaks Station (NB),30.23595,-97.792633,78704
2374,2374,2801 Lamar/Menchaca,30.244014,-97.781577,78704
2388,2388,Cameron/52nd,30.309887,-97.708858,78723
2389,2389,Cameron/Broadmoor,30.311881,-97.706361,78723
2390,2390,Cameron/Corona,30.313185,-97.704679,78723
2392,2392,5913 Cameron/Briarcliff,30.317126,-97.699679,78723
2393,2393,Briarcliff/Nassau,30.316544,-97.697807,78723
2394,2394,1503 Briarcliff/Belfast,30.314906,-97.694362,78723
2396,2396,1941 Gaston Place/Wellington,30.312416,-97.688646,78723
2397,2397,6210 North Hampton/Haney,30.312836,-97.683749,78723
2398,2398,6311 North Hampton/Bristol,30.313627,-97.681795,78723
2399,2399,6801 Northeast/Lehigh,30.317657,-97.680661,78723
2400,2400,Loyola/Northeast,30.318399,-97.679735,78723
2402,2402,2705 Loyola/Willamette,30.315605,-97.674703,78723
2403,2403,2803 Loyola/Tulsa,30.314189,-97.673348,78723
2404,2404,3115 Loyola/Tampa Cove,30.312047,-97.670377,78723
2406,2406,5007 Loyola/Greensboro,30.306534,-97.665444,78723
2407,2407,5213 Loyola/Bridgewater,30.304699,-97.664109,78723
2410,2410,6725 Loyola/Sandshof,30.298647,-97.645181,78724
2416,2416,Loyola/Cielo Vista,30.297837,-97.642748,78724
2419,2419,Northland/Marilyn,30.334546,-97.751832,78731
2421,2421,Allandale/Shoalwood,30.33515,-97.7431,78756
2422,2422,Allandale/Burnet SW Corner,30.33474,-97.74007,78756
2423,2423,1601 Koenig/Arroyo Seco,30.332402,-97.734922,78756
2424,2424,1317 Koenig/Woodrow,30.33063,-97.731225,78756
2425,2425,1205 Koenig/Grover,30.329871,-97.729641,78756
2427,2427,Koenig/Guadalupe SW Corner,30.323488,-97.724021,78751
2428,2428,111 Koenig/Avenue F,30.321928,-97.718764,78752
2432,2432,1101 Camino La Costa/La Posada,30.324081,-97.698549,78752
2433,2433,Camino La Costa/Atkinson,30.324264,-97.695355,78752
2436,2436,7605 Cameron/Anderson,30.331463,-97.686986,78752
2439,2439,1476 Rutherford/Cameron,30.33794,-97.68431,78753
2441,2441,1601 Rutherford/Cameron,30.33645,-97.68178,78754
2443,2443,1823 Centre Creek/Centre Park,30.336404,-97.676493,78754
2451,2451,1706 Centre Creek/Cross Park,30.33623,-97.67771,78754
2455,2455,8004 Cameron/Rutherford,30.33555,-97.68456,78753
2456,2456,7606 Cameron/Anderson,30.33123,-97.68753,78752
2457,2457,7400 Cameron/McKie,30.32921,-97.69045,78752
2459,2459,1206 Camino La Costa/Grand Canyon,30.32428,-97.69614,78752
2460,2460,1044 Camino La Costa/Calidad,30.32468,-97.699305,78752
2465,2465,200 Koenig/Avenue F,30.32198,-97.718379,78752
2468,2468,1120 Koenig/Grover,30.330054,-97.729724,78757
2469,2469,1316 Koenig/Woodrow,30.330909,-97.731445,78757
2472,2472,Koenig/Burnet NE Corner,30.334823,-97.739641,78757
2473,2473,Allandale/Woodview,30.33547,-97.74381,78756
2474,2474,2608 Allandale/Cary,30.33552,-97.74692,78757
2475,2475,Northland/Bullard,30.33456,-97.75026,78757
2476,2476,Northland/Balcones,30.337707,-97.75675,78731
2478,2478,1901 Blue Meadow/Bluff Springs,30.183426,-97.768629,78744
2482,2482,6805 Meadow Lake/Bucks Run,30.179042,-97.753083,78744
2483,2483,6601 Meadow Lake/William Cannon,30.180708,-97.750278,78744
2489,2489,Stassney/Spoke,30.193534,-97.75552,78744
2490,2490,2006 Stassney/Ponciana,30.194942,-97.757865,78744
2491,2491,1706 Stassney/IH 35,30.197437,-97.761644,78744
2493,2493,3107 Red River/32nd,30.290665,-97.727112,78705
2497,2497,2005 Stassney/Ponciana,30.195032,-97.758297,78744
2499,2499,2433 Stassney/Palo Blanco,30.193568,-97.749836,78744
2504,2504,6608 Meadow Lake/William Cannon,30.180618,-97.750504,78744
2505,2505,6806 Meadow Lake/Bucks Run,30.179147,-97.753231,78744
2507,2507,4412 Blue Meadow/Deep Circle,30.179722,-97.758433,78744
2508,2508,2418 Blue Meadow/Bitteroot,30.1804,-97.761152,78744
2511,2511,1900 Blue Meadow/Bluff Springs,30.183658,-97.768765,78744
2518,2518,300 15th/San Jacinto,30.276325,-97.736917,78701
2530,2530,Rundberg/Parkfield,30.36768,-97.70662,78758
2534,2534,Quail Valley/Quail Hutch,30.37788,-97.70795,78758
2535,2535,1612 Mearns Meadow/Quail Valley,30.37889,-97.70653,78758
2536,2536,1720 Mearns Meadow/Robinwood,30.38059,-97.70824,78758
2537,2537,1906 Mearns Meadow/Little Pebble,30.38301,-97.71094,78758
2539,2539,10623 Metric/Denton,30.385965,-97.711828,78758
2540,2540,11001 Metric/Kramer,30.389322,-97.709956,78758
2541,2541,11301 Metric/Braker,30.392761,-97.707868,78758
2544,2544,12195 Metric/Cedar Bend,30.408111,-97.696895,78758
2545,2545,12301 Lamplight Village/Metric,30.411106,-97.695672,78758
2564,2564,12460 Lamplight Village/Alderbrook,30.415114,-97.6965,78758
2566,2566,Lamplight Village/Metric NW Corner,30.41085,-97.695734,78758
2567,2567,12166 Metric/Cedar Bend,30.407779,-97.697279,78758
2568,2568,11510 Metric/Stonehollow,30.39488,-97.706822,78758
2569,2569,11212 Metric/Braker,30.391795,-97.708785,78758
2572,2572,Metric/Boyer,30.3836,-97.71304,78758
2573,2573,1907 Mearns Meadow/Little Pebble,30.38291,-97.7111,78758
2575,2575,1611 Mearns Meadow/Quail Valley,30.37867,-97.70659,78758
2578,2578,1601 Rutland/Mountain Quail,30.371209,-97.709678,78758
2581,2581,1129 Rundberg/Quail Wood,30.366365,-97.70407,78758
2582,2582,Rundberg/Collinfield,30.36529,-97.701797,78758
2583,2583,831 Rundberg/Quail Field,30.3637,-97.69848,78753
2585,2585,Rundberg/Slayton,30.361569,-97.694541,78753
2595,2595,6600 Silvermine/SH 71,30.246587,-97.888607,78735
2597,2597,Oak Hill Plaza,30.234966,-97.87694,78736
2605,2605,517 Lavaca/6th,30.268613,-97.745114,78701
2606,2606,Austin History Center Station (NB),30.27042,-97.74444,78701
2607,2607,Lavaca/10th,30.272281,-97.743773,78701
2611,2611,Austin History Center Station (SB),30.271057,-97.745655,78701
2612,2612,500 Guadalupe/5th,30.268253,-97.74669,78701
2613,2613,Guadalupe/4th,30.267331,-97.747037,78701
2617,2617,6132 US 290/Parkwood,30.235662,-97.855267,78735
2618,2618,Fenton/Scenic Brook,30.235646,-97.898749,78736
2623,2623,5500 S 1st/Stassney,30.208753,-97.78142,78745
2626,2626,S. 1st/Mulberry,30.193782,-97.790034,78745
2627,2627,7230 S 1st/Meadow Lea,30.190183,-97.79057,78745
2628,2628,7816 S 1st/Dittmar,30.184112,-97.792603,78748
2629,2629,8116 S 1st/Mairo,30.181296,-97.794775,78748
2636,2636,8201 S 1st/Mairo,30.180906,-97.794841,78748
2638,2638,7301 S 1st/Meadow Lea,30.189842,-97.790405,78745
2639,2639,6907 S 1st/Thelma,30.194695,-97.78927,78745
2640,2640,6611 1st/William Cannon,30.197336,-97.787836,78745
2641,2641,5603 S 1st/Stassney,30.20827,-97.781507,78745
2643,2643,Lavaca/4th,30.266689,-97.745863,78701
2649,2649,220 6th/Lavaca,30.268793,-97.745075,78701
2650,2650,3608 Menchaca/Valley View,30.235223,-97.784979,78704
2652,2652,Seminary Ridge/Manassas,30.198811,-97.81952,78745
2653,2653,Seminary Ridge/Shiloh,30.195669,-97.821554,78745
2654,2654,Seminary Ridge/Sweet Clover,30.1925,-97.823745,78745
2656,2656,Guidepost/Huebinger Pass,30.188355,-97.827991,78745
2657,2657,Curlew/Guidepost,30.188517,-97.829121,78748
2660,2660,9412 Curlew/Crownspoint,30.183032,-97.832409,78748
2661,2661,9614 Curlew/Monarch,30.180475,-97.833345,78748
2663,2663,Slaughter/Gail,30.176005,-97.831107,78748
2666,2666,Slaughter/Briar Ridge,30.176222,-97.830985,78748
2667,2667,9901 Curlew/Slaughter,30.177129,-97.833854,78748
2669,2669,Curlew/Crownspoint,30.183117,-97.832175,78748
2673,2673,Guidepost/Marsh,30.188075,-97.827667,78748
2674,2674,8609 Leo/Davis,30.190177,-97.825412,78745
2675,2675,8503 Seminary Ridge/Cameron Loop,30.19154,-97.824587,78745
2678,2678,7703 Manassas/Whispering Oaks,30.199565,-97.820124,78745
2679,2679,7203 West Gate/Bryonhall,30.204834,-97.816514,78745
2680,2680,6905 West Gate/William Cannon,30.206976,-97.815418,78745
2681,2681,Menchaca/William Cannon NE Corner,30.203378,-97.806692,78745
2726,2726,9828 Great Hills/Research,30.394273,-97.748666,78759
2727,2727,Pavilion Park and Ride,30.426817,-97.757476,78759
2732,2732,9829 Great Hills/Jollyville,30.394037,-97.74835,78759
2738,2738,Capitol Station (SB),30.275022,-97.744169,78701
2751,2751,ACC Northridge,30.400818,-97.703014,78758
2753,2753,Burnet/Mopac,30.402716,-97.717565,78758
2754,2754,11100 Burnet/Kramer,30.395964,-97.72032,78758
2757,2757,810 Dean Keeton/Hampton,30.289184,-97.730013,78705
2761,2761,500 Martin Luther King/Red River,30.279307,-97.73295,78705
2767,2767,Vic Mathias/Auditorium Shores Station (NB),30.259459,-97.748994,78704
2768,2768,M L King/Trinity (Midblock),30.279262,-97.733535,78701
2780,2780,21st/Whitis (Midblock),30.283844,-97.741124,78705
2803,2803,500 Pleasant Valley/5th,30.257217,-97.710911,78702
2810,2810,East Austin Multi-Center,30.259425,-97.728034,78702
2811,2811,Lakeside Apartments,30.262025,-97.741105,78701
2812,2812,1117 Cesar Chavez/Waller,30.259919,-97.732856,78702
2821,2821,Rundberg Station (NB),30.362617,-97.697133,78753
2823,2823,Park/Crestview Jonestown,30.492932,-97.92296,78645
2825,2825,8032 Bar K Ranch (Lago Vista HS),30.48075,-97.978271,78645
2827,2827,Crossbow/Paseo de Vaca,30.47157,-97.9911,78645
2829,2829,8033 Bar K Ranch (Lago Vista HS),30.480668,-97.978167,78645
2830,2830,Dawn/Thunderbird,30.453482,-97.987134,78645
2831,2831,Park/Crestview Jonestown,30.492835,-97.92283,78645
2832,2832,Bee Street/Main Street,30.502724,-97.914549,78645
2856,2856,1703 12th/Leona,30.273472,-97.721367,78702
2863,2863,Cherrywood/Edgewood,30.28781,-97.716078,78722
2864,2864,3719 Cherrywood/38th Half,30.29149,-97.71368,78722
2870,2870,6717 Cameron/Athletic,30.32283,-97.69413,78752
2871,2871,7068 Cameron/St Johns,30.325625,-97.692766,78752
2872,2872,800 St Johns/IH 35,30.332336,-97.702985,78752
2874,2874,514 St Johns/Guadalupe,30.337813,-97.714297,78752
2877,2877,6904 Airport/Lamar,30.336202,-97.718247,78752
2878,2878,7135 Lamar/St Johns,30.339262,-97.717782,78752
2880,2880,601 St Johns/Guadalupe,30.33781,-97.714621,78752
2886,2886,1011 St Johns/Bethune,30.3301,-97.69847,78752
2908,2908,7925 Rockwood/Ashdale,30.360488,-97.735877,78757
2913,2913,3400 Lamar/34th,30.30282,-97.744768,78705
2917,2917,801 William Cannon/Cooper,30.197943,-97.790054,78745
2918,2918,701 William Cannon/1st,30.197073,-97.788053,78745
2933,2933,Slaughter/United Kingdom,30.174107,-97.809095,78748
2934,2934,Slaughter/Texas Oaks,30.174,-97.814873,78748
2935,2935,1312 Slaughter/Bilbrook,30.173971,-97.816864,78748
2938,2938,HEB Slaughter/Menchaca,30.173812,-97.825922,78748
2974,2974,1401 Slaughter/Bilbrook,30.173682,-97.817308,78748
2975,2975,1213 Slaughter/David Moore,30.173729,-97.81402,78748
2976,2976,1001 Slaughter/United Kingdom,30.173803,-97.80945,78748
3010,3010,Braker/Swearingen,30.387659,-97.69841,78758
3011,3011,1612 Braker/Bittern Hollow,30.389344,-97.701332,78758
3012,3012,1900 Braker/Metric,30.391553,-97.706104,78758
3014,3014,Braker/IBM,30.392667,-97.725958,78758
3016,3016,10050 Great Hills/Research,30.393703,-97.743884,78759
3017,3017,4001 Braker/Stonelake,30.397316,-97.736242,78759
3020,3020,Braker/Burnet SW Corner,30.391127,-97.722228,78758
3021,3021,2001 Braker/Metric,30.392385,-97.708773,78758
3022,3022,1613 Braker/Bittern Hollow,30.389101,-97.701391,78758
3023,3023,Braker/Milbanks,30.387124,-97.697959,78758
3033,3033,1624 Ohlen/Payton Gin,30.36371,-97.71609,78758
3036,3036,Metric/Sunhillow,30.399286,-97.703643,78758
3041,3041,Metric/Lamplight,30.410866,-97.695393,78758
3045,3045,2501 Parmer/Tomanet,30.418592,-97.701867,78727
3060,3060,Burnet/Ashdale,30.358333,-97.730386,78757
3063,3063,Burnet/Teakwood,30.360508,-97.729588,78757
3075,3075,9037 Lamar/Cooper,30.360265,-97.698477,78753
3080,3080,11213 Lamar/Braker,30.38168,-97.686359,78753
3081,3081,315 Braker/Hornsby,30.379968,-97.6833,78753
3082,3082,751 Braker/Middle Fiskville,30.37763,-97.678405,78753
3083,3083,833 Braker/Joseph Clayton,30.376193,-97.674267,78753
3087,3087,11819 Shropshire/Rotherham,30.378569,-97.659881,78753
3088,3088,Shropshire/Tobler,30.380906,-97.661208,78753
3089,3089,Thompkins/Tuffit,30.384103,-97.66232,78753
3090,3090,Thompkins/Peggotty,30.387545,-97.660983,78753
3091,3091,12215 Thompkins/Yager,30.389819,-97.65961,78753
3100,3100,Stassney/Hummingbird,30.207126,-97.77859,78745
3102,3102,1026 Stassney/Emerald Forest,30.210778,-97.786836,78745
3103,3103,1400 Stassney/Radam,30.212318,-97.790956,78745
3105,3105,Stassney/Cork Path,30.217002,-97.799908,78745
3106,3106,2400 Stassney/Fernview,30.218327,-97.803096,78745
3107,3107,West Gate/Indio,30.222838,-97.805563,78745
3109,3109,2313 Stassney/Fernview,30.21814,-97.80326,78745
3110,3110,2035 Stassney (Cherry Creek Plaza),30.216159,-97.799017,78745
3112,3112,1701 Stassney/Rose Hill,30.213644,-97.794264,78745
3113,3113,1401 Stassney/Radam,30.212061,-97.790959,78745
3114,3114,1101 Stassney/Emerald Forest,30.210625,-97.787259,78745
3116,3116,405 W Stassney/Hummingbird,30.207058,-97.778967,78745
3120,3120,2301 Ohlen/Bowling Green,30.362571,-97.728237,78757
3123,3123,Ohlen/Contour,30.36282,-97.71887,78757
3125,3125,1649 Ohlen/Research,30.36357,-97.71592,78758
3127,3127,Northgate/Rundberg,30.371518,-97.715819,78758
3128,3128,1709 Rundberg/Singing Quail,30.370161,-97.712704,78758
3129,3129,Rundberg/Hunters Trace,30.368873,-97.710057,78758
3130,3130,Parkfield/Rundberg,30.36738,-97.70647,78758
3134,3134,1403 Rundberg/Marlborough,30.351563,-97.677494,78753
3135,3135,Rundberg/Cameron,30.349892,-97.676412,78753
3136,3136,9100 Cameron/Rundberg,30.347161,-97.677226,78753
3144,3144,Cameron/Ferguson,30.346131,-97.677249,78753
3145,3145,Rundberg/Marlborough,30.351814,-97.67747,78753
3147,3147,400 Rundberg/Slayton,30.36234,-97.69526,78753
3148,3148,832 Rundberg/Lamar,30.363939,-97.698486,78753
3149,3149,Rundberg/Mearns Meadow,30.364972,-97.700675,78758
3150,3150,1130 Rundberg/Quail Wood,30.36657,-97.70404,78758
3152,3152,Rundberg/Mountain Quail,30.369254,-97.710359,78758
3155,3155,9120 Northgate/Rundberg,30.370738,-97.716508,78758
3159,3159,2306 Ohlen/Bowling Green,30.362828,-97.72843,78757
3160,3160,8118 Burnet/Steck,30.360468,-97.729812,78757
3169,3169,200 William Cannon/Starstreak,30.193894,-97.780466,78745
3170,3170,William Cannon/Sunstrip,30.19479,-97.78349,78745
3172,3172,William Cannon/1st,30.197499,-97.788345,78745
3173,3173,120 William Cannon/Mount Carrell,30.199561,-97.795776,78745
3174,3174,William Cannon/Woodhue,30.200741,-97.79945,78745
3175,3175,1900 William Cannon/Cannonleague,30.202551,-97.80479,78745
3177,3177,William Cannon/Shier,30.203522,-97.808472,78745
3178,3178,2810 William Cannon/Deaton Hill,30.20817,-97.817734,78745
3179,3179,William Cannon/Stage Coach,30.211536,-97.825217,78745
3180,3180,3316 William Cannon/Lost Valley,30.212637,-97.827439,78745
3182,3182,7000 Brodie/Bannockburn,30.213001,-97.83105,78749
3183,3183,7600 Brodie/Harpers Ferry,30.207183,-97.834986,78749
3185,3185,3706 Eskew/Croftwood,30.205019,-97.840085,78749
3186,3186,3910 Eskew/Wakefield,30.205872,-97.843088,78749
3187,3187,4200 Eskew/Mauai,30.207821,-97.846452,78749
3188,3188,4408 Eskew/Copano,30.209422,-97.848776,78749
3193,3193,Convict Hill/Brush Country,30.217449,-97.846951,78749
3196,3196,5616 Convict Hill/Wagon Train,30.222453,-97.861693,78749
3197,3197,Convict Hill/John Blocker,30.223818,-97.864469,78749
3198,3198,6016 Convict Hill/Oliver Loving,30.224997,-97.866859,78749
3205,3205,6115 Convict Hill/Oliver Loving,30.224964,-97.867167,78749
3206,3206,5801 Convict Hill/Cannon Mountain,30.223318,-97.863788,78749
3207,3207,5701 Convict Hill/Wagon Train,30.222491,-97.862056,78749
3208,3208,5401 Convict Hill/Beckett,30.220475,-97.85798,78749
3212,3212,7704 Copano/Copperas,30.213341,-97.850551,78749
3213,3213,7814 Copano/Sarasota,30.210949,-97.84958,78749
3214,3214,4403 Eskew/Copano,30.209294,-97.848453,78749
3215,3215,Eskew/Mauai,30.207733,-97.846601,78749
3216,3216,3911 Eskew/Tree House,30.205755,-97.843159,78749
3217,3217,3709 Eskew/Croftwood,30.204892,-97.840165,78749
3220,3220,7613 Brodie/Harpers Ferry,30.206736,-97.834965,78745
3221,3221,7201 Brodie/Convict Hill,30.211188,-97.831853,78745
3223,3223,3421 William Cannon/Brodie,30.213229,-97.829481,78745
3224,3224,3207 William Cannon/Stagecoach,30.210944,-97.82455,78745
3226,3226,2701 William Cannon/West Gate,30.207197,-97.815778,78745
3228,3228,1945 William Cannon/Menchaca,30.202716,-97.806233,78745
3229,3229,1401 William Cannon/Woodhue,30.200295,-97.799002,78745
3230,3230,1107 William Cannon/Mount Carrell,30.199251,-97.795196,78745
3231,3231,1011 William Cannon/Emerald Forest,30.199075,-97.793338,78745
3234,3234,401 William Cannon/Bill Hughes,30.195674,-97.785337,78745
3238,3238,Travis Correctional Facility,30.19784,-97.645546,78617
3240,3240,3103 SH 71/Cheviot,30.205035,-97.642589,78617
3241,3241,2777 SH 71/Golf Course,30.210895,-97.654067,78617
3247,3247,7200 Riverside/Yellow Jacket,30.221045,-97.69468,78741
3248,3248,6810 Riverside/Frontier Valley,30.222831,-97.698094,78741
3249,3249,6600 Riverside/Vargas,30.224038,-97.700825,78741
3253,3253,Montopolis/Santos,30.22867,-97.700989,78741
3254,3254,1207 Montopolis/Larch,30.232656,-97.698459,78741
3255,3255,911 Montopolis/Cirulo de Amistad,30.234794,-97.697069,78741
3256,3256,Montopolis/Monsanto,30.238996,-97.694369,78741
3259,3259,821 Airport/Glissman,30.256542,-97.69284,78721
3260,3260,1123 Airport/Springdale,30.26537,-97.69532,78721
3261,3261,1135 Airport/Goodwin,30.26848,-97.69626,78721
3262,3262,1149 Airport/Oak Springs,30.27335,-97.69773,78721
3266,3266,1835 Airport/Martin Luther King,30.282339,-97.703722,78721
3271,3271,4335 Airport/Parkwood,30.30041,-97.71246,78722
3272,3272,4613 Airport/46th,30.305369,-97.71577,78751
3273,3273,4821 Airport/48th Half,30.308809,-97.715517,78751
3276,3276,Huntland/Airport,30.33044,-97.715281,78752
3278,3278,Anderson/Watson,30.349206,-97.716025,78757
3279,3279,Anderson/Lazy,30.351463,-97.720782,78758
3281,3281,2114 Anderson/Hardy,30.354997,-97.728269,78757
3284,3284,7905 Anderson Square/Anderson,30.350355,-97.716448,78758
3285,3285,8027 Anderson Square/Research,30.352341,-97.715154,78757
3290,3290,4600 Airport/46th,30.305103,-97.716029,78751
3291,3291,4328 Airport/Crestwood,30.299909,-97.712142,78722
3293,3293,3822 Airport/38th Half,30.288136,-97.707262,78722
3295,3295,2204 Airport/Manor,30.285561,-97.706075,78722
3296,3296,1900 Airport/Martin Luther King,30.282694,-97.704222,78722
3297,3297,1400 Airport/14th Half,30.279033,-97.701939,78702
3298,3298,1198 Airport/12th,30.276489,-97.700213,78702
3299,3299,1144 Airport/Oak Springs,30.27252,-97.69775,78721
3300,3300,1134 Airport/Goodwin,30.26833,-97.69643,78721
3302,3302,Airport/Shady Lane,30.25936,-97.69377,78721
3303,3303,760 Airport/Glissman,30.25446,-97.6928,78721
3304,3304,302 Montopolis/Del Monte,30.242008,-97.692486,78741
3306,3306,Montopolis/Walker,30.238732,-97.694736,78741
3308,3308,900 Montopolis/Felix,30.235454,-97.696831,78741
3310,3310,1412 Montopolis/Marigold,30.229409,-97.700695,78741
3311,3311,1814 Montopolis/Kasper,30.225821,-97.702985,78741
3315,3315,6605 Riverside/Vargas,30.223718,-97.700756,78741
3316,3316,6903 Riverside/Maxwell,30.22227,-97.697493,78741
3317,3317,Riverside/Yellow Jacket,30.22077,-97.694749,78741
3318,3318,Riverside/Uphill,30.219599,-97.692736,78741
3323,3323,3320 FM 973/SH 71,30.200884,-97.640493,78617
3324,3324,3518 Bill Price/FM 973,30.1988,-97.642815,78617
3337,3337,2730 7th/Pleasant Valley,30.260366,-97.710025,78702
3360,3360,Victory/Prather,30.235811,-97.790086,78704
3491,3491,2301 San Jacinto/23rd,30.28555,-97.733531,78705
3496,3496,1017 Camino La Costa/La Posada,30.32551,-97.70152,78752
3512,3512,201 Dean Keeton/University,30.289534,-97.739302,78705
3513,3513,3600 North Hills/Village Center,30.351595,-97.756663,78731
3515,3515,4001 Speedway/40th,30.303334,-97.731711,78751
3519,3519,6th/Campbell,30.276005,-97.76454,78703
3520,3520,Kermit/Jasper,30.287388,-97.782369,78703
3526,3526,Wickersham/Elmont,30.233631,-97.720092,78741
3527,3527,2316 Pleasant Valley/Anken,30.22936,-97.726739,78741
3529,3529,Disch-Falk Field,30.279195,-97.727256,78722
3532,3532,45th / Bennett,30.303935,-97.717598,78751
3535,3535,2200 Burton/Oltorf,30.231271,-97.733733,78741
3647,3647,6917 Wentworth/Colony Loop,30.295796,-97.628031,78724
3655,3655,LBJ High School,30.314586,-97.656099,78724
3722,3722,3513 Oak Springs/Gunter,30.27375,-97.694929,78721
3723,3723,Oak Springs/Mercer,30.273634,-97.692793,78721
3728,3728,Rosewood/Chestnut,30.270419,-97.715,78702
3729,3729,Rosewood/Alamo,30.270096,-97.717001,78702
3730,3730,1422 Rosewood/Angelina,30.268978,-97.724138,78702
3731,3731,1200 11th/Lydia,30.268704,-97.727634,78702
3750,3750,400 23rd/San Jacinto,30.285363,-97.733502,78705
3753,3753,9510 Menchaca/Monarch,30.176806,-97.822278,78748
3754,3754,9700 Menchaca/Slaughter,30.175459,-97.822734,78748
3757,3757,7901 S 1st/Dittmar,30.183697,-97.79269,78748
3763,3763,7200 S 1st/Prince Valiant,30.191739,-97.790498,78745
3764,3764,8318 S 1st/Great Britain,30.179602,-97.79606,78748
3766,3766,818 Slaughter/Palace,30.174142,-97.806358,78748
3767,3767,815 Slaughter/Palace,30.173859,-97.805997,78748
3768,3768,8515 S 1st/Hyde Park,30.176671,-97.797694,78748
3769,3769,8313 S 1st/Great Britain,30.179635,-97.795803,78748
3770,3770,7201 S 1st/Prince Valiant,30.191724,-97.790325,78745
3772,3772,7300 Menchaca/Matthews,30.198694,-97.808351,78745
3773,3773,7504 Menchaca/Lear,30.196326,-97.80986,78745
3774,3774,7800 Menchaca/Beauregard,30.193854,-97.811433,78745
3775,3775,8200 Menchaca/Shiloh,30.190828,-97.813363,78745
3776,3776,9304 Menchaca/Sedgemoor,30.179515,-97.820578,78748
3777,3777,9303 Menchaca/Sedgemoor,30.179446,-97.820242,78748
3778,3778,8125 Menchaca/Breyfogle,30.191575,-97.812505,78745
3779,3779,Menchaca/Keilbar,30.195119,-97.810248,78745
3795,3795,Research/Jamestown,30.355308,-97.714862,78753
3796,3796,Research/Clearfield,30.357316,-97.715514,78758
3797,3797,8523 Research/Fairfield,30.359988,-97.716313,78758
3798,3798,8601 Research/Ohlen,30.362273,-97.716941,78758
3799,3799,Research/Northgate,30.368858,-97.718513,78758
3800,3800,Research/Metric,30.371864,-97.722558,78758
3804,3804,10201 Jollyville/Great Hills,30.395978,-97.749877,78759
3806,3806,4815 Braker/Jollyville,30.400576,-97.748014,78759
3809,3809,11215 Research/Balcones Woods,30.408812,-97.744632,78759
3810,3810,11411 Research/Windriver Apts,30.412532,-97.745139,78759
3811,3811,11689 Research/Duval,30.417953,-97.746152,78759
3812,3812,Research/Riata Apts,30.42702,-97.75387,78727
3813,3813,12550 Research/Oak Knoll,30.43024,-97.76044,78727
3818,3818,10409 Lake Creek/Mellow Meadows,30.46064,-97.79704,78750
3820,3820,11101 Lakeline Mall/Pecan Park,30.472089,-97.801043,78750
3823,3823,10204 Lake Creek/Pecan Park,30.462437,-97.792001,78729
3824,3824,10323 Lake Creek/US 183,30.46091,-97.79649,78750
3829,3829,Research Blvd/Barrington,30.432985,-97.768027,78759
3830,3830,12574 Research/Jollyville,30.429237,-97.760501,78759
3831,3831,11700 Research/Duval,30.41999,-97.747572,78759
3832,3832,11590 Research/Thunder Creek,30.41492,-97.746612,78759
3833,3833,11100 Research/Balcones Woods,30.406858,-97.745727,78759
3834,3834,Braker/Research NW Corner,30.400813,-97.74724,78759
3837,3837,10051 Great Hills/Research (Target),30.393337,-97.743545,78759
3838,3838,10001 Capital of Texas/Stonelake,30.390475,-97.738894,78759
3839,3839,Research/Ohlen,30.364075,-97.718149,78757
3840,3840,8500 Research/Fairfield,30.359635,-97.716748,78757
3843,3843,924 41st/IH 35,30.298908,-97.720539,78751
3846,3846,Riverside/Congress FS,30.256196,-97.746021,78704
3847,3847,205 Riverside/Congress,30.254846,-97.744793,78704
3852,3852,Melrose Place Apt,30.237369,-97.7135,78741
3887,3887,Convict Hill/Latta/Brush Country,30.216888,-97.846068,78749
3895,3895,Braker/Lamar NE Corner,30.381776,-97.685877,78753
3900,3900,12001 Amhearst/Duval,30.412316,-97.721527,78759
3901,3901,Salt Springs/Tara,30.163611,-97.742899,78744
3924,3924,Barton Creek Mall (Sears),30.256415,-97.80931,78746
3931,3931,Walmart Norwood,30.339404,-97.690619,78753
3932,3932,2215 Rosewood/Chestnut,30.27025,-97.71522,78702
3955,3955,Dean Keeton/Speedway,30.289287,-97.73607,78705
3974,3974,Travis County Precinct 4,30.19557,-97.693747,78744
4007,4007,Lavaca/9th,30.271378,-97.744115,78701
4024,4024,504 Riverside/Newning,30.253005,-97.742945,78704
4026,4026,Soco Station (NB),30.248772,-97.749826,78704
4029,4029,Soco Station (SB),30.248134,-97.750367,78704
4039,4039,Oltorf Station (NB),30.239554,-97.752826,78704
4040,4040,Oltorf/Congress,30.237921,-97.752284,78704
4044,4044,121 Oltorf/Euclid (HEB),30.239387,-97.754655,78704
4046,4046,Oltorf Station (SB),30.238013,-97.754383,78704
4065,4065,1311 S 1st/Elizabeth,30.250973,-97.754463,78704
4069,4069,Barton Springs/Lamar,30.260536,-97.757392,78704
4070,4070,Barton Springs Station (SB),30.26007,-97.758952,78704
4071,4071,615 Lamar/Bluff,30.258835,-97.758983,78704
4072,4072,1901 Lamar/Mary,30.24956,-97.767001,78704
4078,4078,1501 Barton Springs/Jessie,30.261416,-97.76013,78704
4079,4079,Barton Springs (Zilker Park),30.266126,-97.768413,78746
4080,4080,2221 Barton Springs (Zilker),30.267964,-97.772453,78746
4081,4081,Barton Springs/Zilker,30.265879,-97.767853,78746
4082,4082,220 Lamar/B R Reynolds,30.268227,-97.755652,78703
4083,4083,219 Lamar/Sandra Muraida,30.268224,-97.755414,78703
4084,4084,600 Lamar/6th,30.272037,-97.753855,78703
4086,4086,5th/West Lynn,30.273605,-97.763241,78703
4088,4088,1000 Lamar/10th,30.275103,-97.752332,78703
4089,4089,1117 Lamar/12th,30.276741,-97.751339,78703
4090,4090,1200 Lamar/12th,30.276963,-97.751452,78703
4096,4096,27th/Whitis,30.292003,-97.740219,78705
4113,4113,Speedway/44th,30.308091,-97.728681,78751
4114,4114,Speedway/38th,30.299792,-97.734149,78705
4115,4115,3201 Speedway/33rd,30.29722,-97.735581,78705
4116,4116,31st/Grooms,30.294366,-97.735868,78705
4117,4117,31st/Walling,30.294287,-97.735581,78705
4120,4120,22nd/Pearl,30.285285,-97.746666,78705
4121,4121,San Gabriel/25 1/2,30.29005,-97.747693,78705
4122,4122,26th/Rio Grande,30.290696,-97.744249,78705
4123,4123,26th/Pearl,30.29086,-97.746437,78705
4125,4125,3004 Lamar/30th Half,30.299542,-97.746769,78705
4128,4128,3913 Medical/39th Half,30.307742,-97.742786,78756
4129,4129,Medical/42nd,30.311492,-97.742464,78756
4133,4133,3617 Bull Creek/Jefferson,30.309849,-97.751043,78731
4134,4134,1951 San Jacinto/Trinity,30.280391,-97.733979,78705
4135,4135,2001 San Jacinto/20th,30.281645,-97.733191,78705
4143,4143,Robert Dedman/Trinity,30.287351,-97.730075,78705
4144,4144,Red River/Dean Keeton,30.28758,-97.72652,78705
4147,4147,3409 Red River/Harris,30.293112,-97.725448,78705
4150,4150,4510 Duval/45th,30.307337,-97.724462,78751
4152,4152,3508 Duval/38th,30.298182,-97.730215,78705
4153,4153,2400 Lamar/24th,30.288718,-97.752825,78703
4154,4154,2327 Lamar/24th,30.288405,-97.752709,78705
4155,4155,1900 Lamar/Martin Luther King,30.283674,-97.752333,78703
4156,4156,1801 Lamar/Martin Luther King,30.283337,-97.751717,78701
4157,4157,2206 Enfield/Meriden,30.287548,-97.766813,78703
4158,4158,2207 Enfield/Kent,30.28741,-97.76683,78703
4162,4162,2531 Lake Austin/Dumas,30.279378,-97.774279,78703
4166,4166,Mopac/Nature Center,30.269505,-97.776342,78746
4167,4167,Mopac/Zilker,30.268571,-97.776574,78746
4170,4170,Rosewood/Leona,30.269427,-97.72125,78702
4171,4171,Rosewood/Salina,30.269475,-97.720098,78702
4172,4172,Rosewood/Chicon,30.269698,-97.719604,78702
4173,4173,1321 12th/Angelina,30.272878,-97.725052,78702
4175,4175,700 Cesar Chavez/Red River,30.261585,-97.737717,78701
4181,4181,7th/Northwestern,30.261408,-97.716495,78702
4182,4182,Comal/Manor,30.282692,-97.726034,78722
4183,4183,1255 Martin Luther King/IH 35,30.278682,-97.72723,78702
4184,4184,Comal/21st,30.280784,-97.725615,78722
4185,4185,Disch-Falk/Comal,30.280667,-97.726905,78722
4186,4186,Dean Keeton/Lafayette,30.284125,-97.721478,78722
4189,4189,Cherrywood/Manor,30.285131,-97.717815,78722
4190,4190,2604 Manor/Stafford,30.284989,-97.715242,78722
4191,4191,2201 Airport/Manor,30.28546,-97.705723,78723
4193,4193,Manor/Tillery,30.286885,-97.703204,78723
4195,4195,3205 Martin Luther King/Airport,30.282537,-97.703456,78721
4196,4196,3014 Martin Luther King/Airport,30.282553,-97.704518,78722
4200,4200,12th/Oak Grove,30.276207,-97.70414,78702
4202,4202,Burnet/47th,30.317748,-97.740022,78756
4204,4204,Allandale Station (SB),30.333766,-97.740096,78756
4207,4207,2401 S 5th/Oltorf,30.243473,-97.76442,78704
4208,4208,2406 S 5th/Oltorf,30.243364,-97.764598,78704
4209,4209,2006 S 5th/Brodie,30.246802,-97.763104,78704
4212,4212,4205 Victory/Ben White,30.232805,-97.7907,78704
4213,4213,4206 Victory/Ben White,30.232792,-97.790917,78704
4215,4215,2317 Panther/Victory,30.238133,-97.788756,78704
4216,4216,2300 Panther/Lamar,30.238522,-97.789058,78704
4218,4218,2555 Western Trails/Sagebrush,30.229457,-97.798807,78745
4219,4219,2700 Western Trails/Sagebrush,30.229104,-97.8005,78745
4220,4220,4631 West Gate/Western Trails,30.229916,-97.800895,78745
4223,4223,Stassney/Westgate,30.218687,-97.805931,78745
4224,4224,2000 Stassney/Menchaca,30.215731,-97.797961,78745
4225,4225,1821 Stassney/Menchaca,30.214594,-97.79633,78745
4226,4226,1820 Stassney/Menchaca,30.214938,-97.796432,78745
4227,4227,5501 Menchaca/Stassney,30.216254,-97.796781,78745
4228,4228,4711 Menchaca/Frontier,30.22403,-97.791983,78745
4229,4229,4611 Menchaca/Forest Hill,30.226246,-97.790564,78745
4230,4230,4413 Menchaca/Redd,30.228562,-97.789081,78745
4231,4231,Pack Saddle Pass/Ben White,30.231055,-97.792199,78745
4234,4234,Ann Richards School,30.23581,-97.789879,78704
4235,4235,2020 Ben White/Menchaca,30.230638,-97.788524,78704
4236,4236,4029 Banister/Ben White,30.228599,-97.778699,78704
4267,4267,Congress/Dunlap,30.22443,-97.763196,78704
4268,4268,Congress/Ben White,30.224457,-97.762871,78704
4272,4272,4735 Congress/Sheraton,30.214379,-97.769146,78745
4273,4273,Congress/Wasson,30.212003,-97.77068,78745
4275,4275,118 Stassney/Congress,30.205325,-97.775422,78745
4276,4276,119 Stassney/Congress,30.205187,-97.775706,78745
4277,4277,720 Stassney/1st,30.208997,-97.782366,78745
4278,4278,1706 Stassney/Rose Hill,30.214017,-97.794515,78745
4283,4283,1400 Pleasant Valley/Lakeshore,30.240161,-97.71877,78741
4284,4284,1225 Pleasant Valley/Elmont,30.239813,-97.718786,78741
4285,4285,Elmont/Pleasant Valley,30.238125,-97.718348,78741
4286,4286,1600 Wickersham/Elmont,30.235821,-97.718624,78741
4288,4288,1820 Pleasant Valley (HEB),30.235236,-97.72198,78741
4290,4290,Oltorf/Burleson,30.231078,-97.735306,78741
4293,4293,2121 Burton/Oltorf,30.23152,-97.733408,78741
4295,4295,Willow Creek/Woodland,30.2331,-97.728953,78741
4296,4296,Oltorf/Burton,30.230285,-97.732372,78741
4298,4298,2316 Pleasant Valley/Sheringham,30.231185,-97.725582,78741
4299,4299,1900 Crossing Place/Riverside,30.232408,-97.717232,78741
4300,4300,1901 Crossing Place/Riverside,30.232153,-97.717055,78741
4301,4301,1501 Crossing Place/Faro,30.235016,-97.714646,78741
4302,4302,1500 Crossing Place/Faro,30.234887,-97.71506,78741
4306,4306,Montopolis/El Mirando,30.240245,-97.693567,78741
4310,4310,2821 Montopolis/Oltorf,30.215817,-97.70926,78741
4312,4312,6000 Oltorf/Montopolis,30.217714,-97.715542,78741
4313,4313,5301 Oltorf/Alvin Devane,30.219883,-97.720359,78741
4317,4317,4120 Freidrich/Woodward,30.213561,-97.745855,78744
4318,4318,Woodward/Ben White SW Corner,30.214641,-97.744698,78744
4323,4323,3300 Parker/Timber Ridge,30.22216,-97.742228,78741
4324,4324,3301 Parker/Timber Ridge,30.222918,-97.7421,78741
4325,4325,3004 Parker/Timber Ridge,30.224895,-97.742138,78741
4326,4326,ABIA Lower Level,30.202744,-97.665653,78617
4331,4331,1715 Stassney/IH 35,30.197199,-97.761558,78744
4335,4335,2523 Stassney/Chaparral,30.193724,-97.747107,78744
4342,4342,Pleasant Valley/Creek Bend,30.18276,-97.745408,78744
4345,4345,1700 William Cannon/Bluff Springs,30.189202,-97.767485,78744
4348,4348,2015 William Cannon/Elm Creek,30.187471,-97.762532,78744
4349,4349,2283 William Cannon/Stoneleigh,30.1864,-97.759149,78744
4350,4350,2300 William Cannon/Stoneleigh,30.186485,-97.758728,78744
4351,4351,William Cannon/Branchwood,30.183639,-97.754477,78744
4352,4352,William Cannon/Rockridge,30.184074,-97.754703,78744
4353,4353,4812 William Cannon/Meadow Lake,30.181192,-97.75051,78744
4354,4354,2114 Blue Meadow/Blue Dawn,30.18173,-97.764323,78744
4355,4355,2203 Blue Meadow/Blue Dawn,30.181535,-97.76431,78744
4357,4357,7200 Salt Springs/Orleans,30.168548,-97.739677,78744
4359,4359,Salt Springs/Asa,30.16528,-97.741884,78744
4361,4361,Salt Springs/Orange Blossom,30.166767,-97.740756,78744
4362,4362,812 Stassney/IH 35,30.20039,-97.766394,78745
4363,4363,811 Stassney/Mira,30.200052,-97.766668,78745
4364,4364,Stassney/Mira,30.202351,-97.770825,78745
4365,4365,407 Stassney/Congress,30.202767,-97.771769,78745
4381,4381,6610 Congress/Eberhart,30.194215,-97.778449,78745
4382,4382,Pleasant Hill Station (NB),30.194535,-97.778085,78745
4384,4384,William Cannon/Skynook,30.193479,-97.780305,78745
4393,4393,609 Stassney/1st,30.208097,-97.781018,78745
4394,4394,5802 South 1st/Stassney,30.205367,-97.78315,78745
4397,4397,6800 S 1st/William Cannon,30.196414,-97.788391,78745
4398,4398,William Cannon/Bill Hughes,30.196488,-97.786118,78745
4403,4403,8600 S 1st/Hyde Park,30.176287,-97.79814,78748
4404,4404,8905 S 1st/Slaughter,30.173403,-97.798751,78748
4411,4411,Slaughter/Menchaca,30.17359,-97.822771,78748
4412,4412,Slaughter/Riddle,30.173945,-97.827352,78748
4414,4414,8700 Menchaca/Davis,30.185354,-97.816843,78748
4415,4415,8509 Menchaca/Dittmar,30.186654,-97.815648,78745
4424,4424,William Cannon/Whispering Oaks,30.203663,-97.809228,78745
4426,4426,7317 Menchaca/Gaines Mill,30.197956,-97.808456,78745
4427,4427,6110 West Gate/Luton,30.215531,-97.813866,78745
4428,4428,William Cannon/Deaton Hill,30.207901,-97.817777,78745
4429,4429,2616 William Cannon/West Gate,30.207075,-97.81479,78745
4430,4430,6900 West Gate/William Cannon,30.206182,-97.816037,78745
4431,4431,8300 West Gate/Siskin,30.196017,-97.82923,78745
4433,4433,Curlew/Kentish Drive,30.187173,-97.829818,78748
4434,4434,Curlew/Monarch,30.180091,-97.833358,78748
4435,4435,Eskew/Brodie,30.20339,-97.837717,78749
4436,4436,3101 William Cannon/Ranch,30.209995,-97.822172,78745
4437,4437,3100 William Cannon/Ranch,30.210329,-97.822279,78745
4441,4441,Copano/Clarno,30.211939,-97.84982,78749
4442,4442,Latta/Islander,30.215679,-97.849077,78749
4444,4444,4922 Convict Hill/Flaming Oak,30.217987,-97.852494,78749
4445,4445,4923 Convict Hill/Flaming Oak,30.217966,-97.852755,78749
4446,4446,5125 Convict Hill/Woodcreek,30.218895,-97.854694,78749
4447,4447,Convict Hill/Woodcreek,30.219087,-97.854773,78749
4448,4448,6701 Silvermine/SH 71,30.245996,-97.888647,78736
4453,4453,8403 Red Willow/Smokey Hill,30.24159,-97.894279,78736
4454,4454,8310 Red Willow/Smokey Hill,30.241604,-97.89409,78736
4457,4457,8525 Red Willow/Bargamen,30.240953,-97.898066,78736
4458,4458,8530 Red Willow/Selway,30.240596,-97.898425,78736
4461,4461,Red Willow/Fenton,30.236772,-97.900898,78736
4462,4462,Fenton/Red Willow,30.236672,-97.900803,78736
4465,4465,10935 Lakeline Mall/US 183,30.473343,-97.797676,78717
4466,4466,Lakeline Mall/Lake Creek,30.474983,-97.794127,78729
4470,4470,4702 Lamar/Dudmar,30.233588,-97.809163,78735
4471,4471,4970 US 290/Brodie,30.233713,-97.819058,78735
4473,4473,6900 Scenic Brook/SH 71,30.237011,-97.878699,78736
4474,4474,6905 Scenic Brook/SH 71,30.236888,-97.878511,78736
4481,4481,Scenic Brook/Hanbridge,30.237524,-97.893567,78736
4482,4482,Scenic Brook/Kirkham,30.237722,-97.892904,78736
4485,4485,Scenic Brook/Banpass,30.235646,-97.897868,78736
4486,4486,Oak Hill Park and Ride,30.234439,-97.862645,78735
4488,4488,Mopac/Wallingwood,30.265767,-97.781128,78746
4489,4489,1300 Spyglass/Wallingwood,30.261146,-97.786623,78746
4490,4490,1788 Spyglass/Barton Skyway,30.259147,-97.79103,78746
4491,4491,Mopac/Barton Skyway,30.262083,-97.78957,78746
4492,4492,1010 Walsh Tarlton/Bee Caves,30.2736,-97.80122,78746
4493,4493,1007 Walsh Tarlton/Bee Caves,30.273889,-97.800812,78746
4494,4494,2701 Walsh Tarlton/Capital of Texas,30.258478,-97.811286,78746
4497,4497,4219 Bull Creek/Jackson,30.316743,-97.754711,78731
4498,4498,4701 Bull Creek/Perry,30.323119,-97.75182,78731
4509,4509,820 Koenig/Lamar,30.326578,-97.726875,78752
4513,4513,Koenig/Guadalupe,30.323545,-97.723626,78752
4516,4516,4801 Guadalupe/46th,30.314726,-97.730353,78751
4518,4518,4903 Guadalupe/46th,30.316531,-97.72913,78751
4521,4521,4800 Sunshine (Criss Cole Rehab),30.317281,-97.735373,78756
4523,4523,Woodrow/Dartmouth,30.348038,-97.723558,78757
4524,4524,3607 Manor/Pershing,30.289421,-97.697681,78723
4528,4528,4316 Lamar/43rd,30.311348,-97.73919,78756
4529,4529,915 45th/Red River,30.304397,-97.718869,78751
4534,4534,961 Springdale/Govalle,30.264596,-97.696074,78721
4536,4536,Lamar/Meadowlark,30.35188,-97.70748,78753
4538,4538,8950 Lamar/Cooper,30.359248,-97.699316,78753
4539,4539,Rundberg/Lamar,30.362762,-97.69653,78753
4540,4540,Rundberg Station (SB),30.363669,-97.69684,78753
4541,4541,9717 Lamar/Rutland,30.366232,-97.695082,78753
4542,4542,9800 Lamar/Longspur,30.367568,-97.694603,78753
4543,4543,Masterson Station (NB),30.372083,-97.691817,78753
4545,4545,Lamar/Applegate,30.374486,-97.690432,78753
4548,4548,Chinatown Station (NB),30.379385,-97.687683,78753
4550,4550,Braker/Motheral,30.380984,-97.684984,78753
4551,4551,314 Braker/Hornsby,30.380223,-97.683325,78753
4553,4553,200 Braker/Oakwood,30.378569,-97.679983,78753
4554,4554,700 Braker/Pollyanna,30.377449,-97.677411,78753
4557,4557,Cameron/Cross Park,30.343606,-97.678835,78753
4568,4568,6205 Burnet/Romeria,30.33743,-97.73931,78757
4570,4570,Ohlen Station (NB),30.363467,-97.728784,78757
4571,4571,Burnet/Colfax,30.367566,-97.727715,78757
4572,4572,Crossroads Station (NB),30.370976,-97.726817,78757
4573,4573,Crossroads Station (SB),30.371234,-97.727017,78757
4574,4574,Ohlen Station (SB),30.363467,-97.72905,78757
4576,4576,Mesa/Paint Rock,30.36636,-97.7611,78731
4578,4578,Burnet/Twin Oaks,30.340324,-97.739058,78757
4579,4579,Burnet/Rockwood,30.367142,-97.728061,78757
4580,4580,Anderson/Gault,30.350302,-97.718359,78758
4581,4581,Airport/Shady,30.259748,-97.693656,78721
4586,4586,400 Martin Luther King/Trinity,30.279666,-97.734311,78705
4587,4587,Koenig/Arroyo Seca,30.332304,-97.734417,78757
4588,4588,2607 Allandale/Cary,30.33533,-97.747,78756
4592,4592,Cameron/Glencrest,30.319114,-97.69749,78723
4593,4593,801 Clyde Littlefield/Red River,30.283302,-97.728684,78701
4600,4600,1st/Bronco,30.474202,-97.973709,78645
4602,4602,Martin Luther King/Scottsdale,30.286309,-97.678798,78723
4606,4606,Tannehill/Webberville,30.284396,-97.670845,78721
4609,4609,Cameron/Ridgehaven,30.315381,-97.70186,78723
4610,4610,6400 North Hampton/Bristol,30.3138,-97.681756,78723
4611,4611,4701 Loyola/Manor,30.309468,-97.666739,78723
4612,4612,5627 Loyola/Millrace,30.302822,-97.657453,78724
4613,4613,5911 Loyola/Crystalbrook,30.302554,-97.653518,78724
4614,4614,Loyola/Johnny Morris SE Corner,30.299874,-97.647843,78724
4615,4615,Loyola/Johnny Morris NE Corner,30.29995,-97.647303,78724
4617,4617,6809 Wentworth/Riverstone,30.294894,-97.630057,78724
4619,4619,Colony Loop/Decker,30.294341,-97.62633,78724
4626,4626,Slaughter/1st,30.173762,-97.80117,78748
4630,4630,1518 Barton Springs/Jessie,30.261763,-97.760486,78704
4646,4646,3505 Lamar/37th,30.303981,-97.743764,78705
4648,4648,Steck/Shoal Creek,30.365507,-97.736934,78757
4649,4649,Steck/Daleview,30.365892,-97.737465,78757
4650,4650,Balcones/Northland,30.33696,-97.75756,78731
4651,4651,North Hills/Valleyside,30.34922,-97.75418,78731
4652,4652,3535 Greystone/Wood Hollow,30.358258,-97.751138,78731
4654,4654,10135 Lake Creek/US 183,30.462312,-97.791684,78729
4655,4655,10007 Lake Creek/Pecan Park,30.467978,-97.787873,78729
4656,4656,Lake Creek/FM 620,30.468862,-97.789255,78717
4657,4657,Museum Station (NB),30.2793,-97.74119,78701
4658,4658,Jollyville/Balcones Woods,30.407651,-97.747776,78759
4659,4659,Balcones Woods/Research,30.407777,-97.747021,78759
4667,4667,4609 12th/Springdale,30.278604,-97.686295,78721
4668,4668,12th/Luna,30.27828,-97.69077,78721
4670,4670,3500 12th/Greenwood,30.277482,-97.696869,78721
4671,4671,13701 McCallen/Center Ridge,30.417607,-97.661907,78660
4672,4672,12801 McCallen/Parmer,30.405922,-97.663623,78753
4682,4682,Braker/Burnet NW Corner,30.391615,-97.723148,78758
4688,4688,Research/Hamilton,30.401655,-97.745247,78759
4690,4690,Research/Technology,30.43266,-97.76536,78727
4691,4691,Research/Burnet,30.37228,-97.72535,78757
4692,4692,Riverside/Airport Commerce,30.220133,-97.693126,78741
4696,4696,11300 Lamar/Braker,30.382734,-97.686052,78753
4697,4697,Lamar/Northbend,30.38531,-97.68473,78753
4698,4698,Lamar/Little Oak,30.38857,-97.68337,78753
4699,4699,Lamar/Yager,30.402463,-97.678967,78753
4703,4703,1600 Centre Creek/Rutherford,30.335382,-97.68026,78754
4704,4704,1605 Centre Creek/Rutherford,30.335254,-97.67997,78754
4706,4706,Fisher-Rosemount Systems,30.33692,-97.68223,78754
4707,4707,7911 Cameron/Anderson,30.33485,-97.68471,78754
4708,4708,7401 Cameron/Coronado Hills,30.329295,-97.690041,78752
4709,4709,7209 Cameron/St Johns,30.326543,-97.69184,78752
4711,4711,1322 St Johns/Cameron,30.32636,-97.692703,78752
4712,4712,1016 Camino La Costa/La Posada,30.327108,-97.702019,78752
4713,4713,801 St Johns/Bennett,30.33112,-97.7006,78752
4720,4720,8100 Cameron Road,30.33771,-97.68437,78753
4721,4721,1207 Rundberg/Teasdale,30.353725,-97.681067,78753
4723,4723,1037 Rundberg/Fiskville Cemetery,30.355078,-97.683168,78753
4725,4725,9306 Georgian/Rundberg,30.360445,-97.693759,78753
4727,4727,Rundberg/Singing Quail,30.371433,-97.714218,78758
4728,4728,1830 Colony Creek/Northgate,30.369704,-97.716323,78758
4729,4729,1729 Colony Creek/Northgate,30.369189,-97.715046,78758
4730,4730,9030 Galewood/Colony Creek,30.36748,-97.71512,78758
4731,4731,9029 Galewood/Colony Creek,30.367505,-97.714901,78758
4732,4732,8910 Galewood/Payton Gin,30.366009,-97.716055,78758
4733,4733,8919 Galewood/Payton Gin,30.36617,-97.715754,78758
4734,4734,Ohlen/Research,30.362927,-97.71902,78757
4737,4737,1204 38th Half/Hollywood,30.294262,-97.718216,78722
4738,4738,38th Half/Lafayette,30.29299,-97.71598,78722
4742,4742,4311 Springdale/Martin Luther King,30.286366,-97.682192,78723
4743,4743,4609 Springdale/Touchstone,30.289398,-97.68025,78723
4748,4748,Berkman/US 290 SW Corner,30.319884,-97.68919,78723
4751,4751,4911 Menchaca/Jones,30.222511,-97.792945,78745
4753,4753,9101 Burnet/Research,30.374709,-97.725908,78758
4754,4754,Burnet/Waterford Center,30.375734,-97.725963,78758
4756,4756,Rutland Station (SB),30.3836,-97.72419,78758
4757,4757,Rutland Station (NB),30.379497,-97.724857,78758
4760,4760,10508 Burnet/Braker,30.389539,-97.722482,78758
4761,4761,10701 Burnet/Braker,30.391796,-97.721477,78758
4763,4763,Braker/Seton Center,30.400365,-97.742281,78759
4769,4769,10300 Metric/Energy,30.382764,-97.714259,78758
4770,4770,10301 Metric/Energy,30.382694,-97.714054,78758
4779,4779,510 Bouldin/Barton Springs,30.259103,-97.753844,78704
4780,4780,1662 Rutland/Mountain Quail,30.374452,-97.711799,78758
4781,4781,1622 Rutland/Mountain Quail,30.372478,-97.711969,78758
4782,4782,Rutland/Quail Valley,30.376082,-97.710918,78758
4783,4783,1649 Rutland/Quail Valley,30.374408,-97.71203,78758
4795,4795,Metric/Running Bird,30.411624,-97.69161,78758
4796,4796,12623 Metric/Scofield,30.414986,-97.688459,78727
4797,4797,12525 Metric/Parmer,30.413731,-97.690113,78727
4801,4801,Crystalbrook/Loyola,30.303295,-97.653761,78724
4802,4802,7305 Crystalbrook/Ute,30.311071,-97.650894,78724
4805,4805,Manor/Wheeless,30.307813,-97.6778,78723
4807,4807,5600 Manor/Overbrook,30.30353,-97.682522,78723
4808,4808,5200 Manor/Westminster,30.29973,-97.68622,78723
4809,4809,5211 Manor/Westminster,30.29982,-97.68598,78723
4813,4813,2801 Wells Branch/Double File,30.441506,-97.689979,78728
4814,4814,2300 Wells Branch/Merrilltown,30.439293,-97.68557,78728
4815,4815,2301 Wells Branch/Merrilltown,30.438537,-97.685392,78728
4816,4816,2112 Wells Branch/Surrender,30.436623,-97.683609,78728
4817,4817,2107 Wells Branch/Renaissance,30.436412,-97.683828,78728
4818,4818,1900 Wells Branch/Alex,30.434837,-97.679157,78728
4820,4820,13510 Metric/Howard,30.424487,-97.679624,78727
4821,4821,13200 Metric/Chasewood,30.421944,-97.683043,78727
4822,4822,13501 Metric/Chasewood,30.424288,-97.679467,78727
4824,4824,12622 Metric/Scofield,30.415168,-97.688677,78727
4829,4829,2869 Lamar/29th,30.298016,-97.748412,78705
4830,4830,Rosedale Station (NB),30.308217,-97.741034,78756
4831,4831,Rosedale Station (SB),30.308074,-97.74137,78756
4833,4833,Metric/Lamplight Village,30.4105,-97.69554,78758
4834,4834,Quail Valley/Rutland,30.377423,-97.709544,78758
4838,4838,Jasper/Lake Austin,30.287732,-97.780403,78703
4873,4873,Amherst/Parmer,30.424353,-97.713654,78727
4875,4875,12400 Amherst/Adelphi,30.421212,-97.71596,78727
4876,4876,12401 Amherst/Adelphi,30.42131,-97.71561,78727
4877,4877,12200 Amherst/Mosley,30.417718,-97.718153,78727
4878,4878,12209 Amherst/Dugan,30.417825,-97.717878,78759
4895,4895,Braker/Mopac NE Corner,30.395374,-97.731553,78759
4896,4896,Lamar/Caddo,30.385845,-97.684238,78753
4908,4908,9200 South 1st/Island Oak,30.157841,-97.800157,78748
4909,4909,9201 S 1st/Slaughter,30.171737,-97.800185,78748
4915,4915,9000 S 1st/Slaughter,30.173319,-97.79903,78748
4919,4919,507 45th/Duval,30.306867,-97.724157,78751
4920,4920,500 45th/Duval,30.307024,-97.724177,78751
4921,4921,45th/Avenue F,30.3082,-97.727325,78751
4923,4923,20201 Dawn/Lohman Ford,30.454587,-97.980005,78645
4924,4924,Bronco/1st,30.47447,-97.97358,78645
4925,4925,Bronco/Dodge Trace,30.479306,-97.974374,78645
4926,4926,Bar K Ranch/Coyote,30.474413,-97.989681,78645
4927,4927,21459 Coyote/Camstock Cove,30.46992,-97.98794,78645
4928,4928,21475 Coyote/Camstock Cove,30.4726,-97.98673,78645
4930,4930,20204 Dawn/Lohman Ford,30.454746,-97.980364,78645
4937,4937,5701 Johnny Morris/FM 969,30.292629,-97.653013,78724
4938,4938,6403 Johnny Morris/FM 969,30.297443,-97.649934,78724
4939,4939,6402 Johnny Morris/Loyola,30.29748,-97.650032,78724
4940,4940,5800 Johnny Morris/Loyola,30.292869,-97.653011,78724
4948,4948,4815 William Cannon/Meadow Lake,30.180908,-97.750494,78744
4952,4952,9700 Anderson Mill/US 183,30.448048,-97.79324,78750
4953,4953,11807 Millwright/Missel Thrush,30.447549,-97.803914,78750
4954,4954,12103 Millwright/Old Stage Trail,30.452086,-97.802828,78750
4955,4955,12221 Millwright/Wendts Way,30.455338,-97.80375,78750
4956,4956,10621 Lake Creek/Millwright,30.457116,-97.803597,78750
4957,4957,10505 Lake Creek/Hickory Stick,30.458877,-97.799056,78750
4958,4958,10504 Lake Creek/Mellow Meadows,30.458885,-97.799333,78750
4959,4959,10620 Lake Creek/School House,30.456924,-97.804141,78750
4960,4960,12220 Millwright/Salt Mill,30.455334,-97.803932,78750
4962,4962,11808 Millwright/Anderson Mill,30.447986,-97.803995,78750
4964,4964,Braker/Lamar NW Corner,30.382691,-97.687669,78753
4965,4965,Braker/Austin Park,30.385465,-97.694205,78758
4967,4967,2100 Braker/Metric,30.39276,-97.70884,78758
4968,4968,2236 Braker/Kramer,30.391761,-97.713127,78758
4970,4970,2243 Braker/Kramer,30.39123,-97.713218,78758
4971,4971,Braker/Metric (Midblock),30.391164,-97.705878,78758
4972,4972,1317 Braker/Parkfield,30.385618,-97.695091,78758
4973,4973,Braker/Plains,30.383667,-97.690661,78758
4979,4979,2204 San Gabriel/22nd Half,30.285872,-97.748124,78705
4983,4983,Hart/Far West,30.357422,-97.754595,78731
4985,4985,Kermit/Lufkin,30.288949,-97.783344,78703
4986,4986,Lake Austin/Jasper,30.284539,-97.777864,78703
4989,4989,800 Clyde Littlefield/Red River,30.283464,-97.728753,78705
5002,5002,North Loop/Woodview,30.325374,-97.742201,78756
5006,5006,North Loop/Burnet,30.325594,-97.742036,78756
5007,5007,Tannehill/Webberville,30.283973,-97.671344,78721
5008,5008,6200 North Hampton/Wheeless,30.312469,-97.684539,78723
5014,5014,1100 Braker/Plains,30.384098,-97.690954,78758
5019,5019,Stonelake/Great Hills,30.394136,-97.73962,78759
5023,5023,325 Riverside/Newning,30.25359,-97.743972,78704
5024,5024,116 Dean Keeton/University,30.289717,-97.738797,78705
5032,5032,516 Pleasant Valley/Lakeshore,30.246246,-97.714907,78741
5038,5038,301 Dean Keeton/San Jacinto,30.289237,-97.735367,78705
5039,5039,23rd/Trinity SW Corner,30.2851,-97.733074,78705
5043,5043,Grove/Fairway,30.230394,-97.70616,78741
5045,5045,2474 SH 71/Presidential,30.212705,-97.65909,78617
5048,5048,5214 Menchaca/Fair Oaks,30.219433,-97.794929,78745
5049,5049,305 Huntland/Brenda,30.330724,-97.710636,78752
5053,5053,7101 Roland Johnson/St Johns,30.333233,-97.705842,78752
5055,5055,5402 Convict Hill/Beckett,30.220755,-97.858202,78749
5057,5057,6971 Roland Johnson/Huntland,30.33097,-97.706741,78752
5070,5070,Northgate/Research,30.368637,-97.71763,78758
5071,5071,Research/Lamar,30.350323,-97.713047,78753
5077,5077,Elmont/Wickersham,30.238352,-97.718471,78741
5078,5078,1515 Wickersham/Riverside,30.235709,-97.718516,78741
5079,5079,Wickersham/Riverside,30.232959,-97.720095,78741
5080,5080,Anken/Willow Creek,30.230869,-97.728974,78741
5081,5081,Cameron/Clear Creek,30.341356,-97.68045,78754
5082,5082,Cameron/Park Center,30.338928,-97.682055,78754
5092,5092,15th/Colorado,30.277262,-97.740316,78701
5098,5098,New Airport/Spirit of Texas,30.212481,-97.663827,78617
5099,5099,New Airport/Employee,30.212636,-97.66384,78617
5100,5100,1120 Airport/Springdale,30.264908,-97.695452,78721
5104,5104,St Johns/IH 35 (Midblock),30.332158,-97.702924,78752
5119,5119,7th/Chicon,30.262602,-97.721983,78702
5120,5120,7th/Concho,30.26388,-97.725646,78702
5121,5121,4415 Blue Meadow/Deep,30.17944,-97.758205,78744
5123,5123,1111 Braker/Tom Adams,30.373772,-97.669335,78753
5130,5130,3201 Govalle/Tillery,30.265835,-97.701948,78702
5133,5133,Hobby Horse/Gracy Farms,30.404089,-97.714035,78758
5136,5136,Meadow Lake/Blue Meadow,30.178206,-97.754762,78744
5137,5137,Meadow Lake/Glade Line,30.178193,-97.754961,78744
5147,5147,Stassney/Meadow Crest,30.191183,-97.73152,78744
5150,5150,3113 Webberville/Govalle,30.267713,-97.707546,78702
5158,5158,150 6th/Congress,30.26837,-97.743649,78701
5159,5159,Blue Meadow/Granger,30.178217,-97.755781,78744
5160,5160,Burnet/Allandale (HEB),30.3344,-97.740705,78756
5170,5170,Burleson/Felter NW,30.197813,-97.705025,78744
5174,5174,23rd/Trinity NW Corner,30.285327,-97.733028,78705
5175,5175,501 23rd/Trinity,30.285069,-97.732623,78705
5176,5176,601 23rd/Trinity,30.284999,-97.731804,78705
5178,5178,21st/Whitis,30.283826,-97.7409,78705
5186,5186,6500 Berkman/Wheless,30.318167,-97.690141,78723
5191,5191,Montopolis/Caddie,30.22735,-97.702007,78741
5193,5193,Norwood Park/Brettonwoods,30.338844,-97.694029,78753
5194,5194,Riverside Dr/Willow Creek,30.23575,-97.724953,78741
5209,5209,705 11th/Sabine,30.270695,-97.734076,78701
5219,5219,4th/Guadalupe,30.267112,-97.74719,78701
5220,5220,Evergreen/Pecan,30.505705,-97.912343,78645
5222,5222,11100 Pecan Park/Lakeline Mall,30.4727,-97.802246,78750
5223,5223,9700 North Lake Creek/Lakeline Mall,30.476288,-97.794455,78729
5225,5225,North Lamar Bay 1,30.350016,-97.71196,78753
5226,5226,North Lamar Bay 2,30.350167,-97.712099,78753
5227,5227,North Lamar Bay 3,30.350066,-97.712111,78753
5228,5228,Lakeline Station Bay I,30.480422,-97.786505,78729
5229,5229,Lakeline Station Bay H,30.480562,-97.786668,78729
5230,5230,Lakeline Station Bay G,30.480719,-97.786775,78729
5231,5231,Lakeline Station Bay F,30.480899,-97.786969,78729
5232,5232,Lakeline Station Bay E,30.481087,-97.787116,78729
5237,5237,10727 Jollyville/Braker,30.400546,-97.748813,78759
5240,5240,700 Ben White (Walmart),30.218991,-97.755293,78704
5259,5259,Ben White/Governors Row,30.215568,-97.748582,78741
5263,5263,200 Turk/Cullen,30.163367,-97.791351,78748
5264,5264,Mopac/Bee Caves,30.267249,-97.778495,78746
5270,5270,Parmer Station (NB),30.40559,-97.678489,78753
5271,5271,12416 Lamar/Parmer,30.406533,-97.678591,78753
5273,5273,Tech Ridge Bay H,30.418266,-97.668678,78753
5274,5274,Tech Ridge Bay B,30.41844,-97.668279,78660
5277,5277,3000 Wells Branch/Tandem,30.441493,-97.692608,78728
5278,5278,3001 Wells Branch/Summit,30.44121,-97.692441,78728
5279,5279,Tech Ridge Bay J,30.418161,-97.667996,78660
5280,5280,Parmer Station (SB),30.410119,-97.678043,78727
5281,5281,Tech Ridge Bay G,30.418296,-97.668868,78753
5283,5283,Hancock Center,30.300218,-97.720574,78751
5284,5284,Capital Plaza,30.315894,-97.706435,78723
5286,5286,Camino La Costa/Calidad,30.324373,-97.696676,78752
5287,5287,1443 Coronado Hills/Cameron,30.327914,-97.68894,78752
5289,5289,Stassney/Birch Creek,30.191363,-97.734842,78744
5290,5290,Research/Seton Center,30.404485,-97.744959,78759
5301,5301,Tech Ridge Bay E,30.418565,-97.669112,78753
5302,5302,Tech Ridge Bay F,30.418325,-97.66907,78753
5304,5304,Tech Ridge Bay I,30.418199,-97.668243,78660
5305,5305,3301 Wells Branch/Howard,30.440104,-97.695268,78728
5310,5310,8201 Congress/Foremost,30.176243,-97.784118,78745
5311,5311,8200 Congress/Foremost,30.176853,-97.784179,78745
5313,5313,6811 Congress/Clearday,30.190842,-97.779568,78745
5314,5314,7309 Congress/Dittmar,30.186,-97.781105,78745
5315,5315,7310 Congress/Dittmar,30.185789,-97.781306,78745
5316,5316,Fiesta (3909 S IH35/38th Half),30.295825,-97.717787,78722
5317,5317,Anderson/Cameron,30.334092,-97.688306,78753
5319,5319,Lamar/Howard,30.41672,-97.676257,78727
5320,5320,Thompkins/Trotwood,30.387388,-97.661196,78753
5321,5321,Thompkins/Larkins,30.383411,-97.66271,78753
5323,5323,11816 Shropshire/Rotherham,30.378361,-97.659936,78753
5324,5324,1120 Braker/January,30.37371,-97.66846,78753
5325,5325,Braker/Wedgewood,30.375894,-97.673184,78753
5328,5328,12600 Tech Ridge/Parmer,30.400782,-97.658737,78753
5329,5329,12500 Tech Ridge/Canyon Ridge,30.398943,-97.663278,78753
5330,5330,12501 Tech Ridge/Canyon Ridge,30.398589,-97.662869,78753
5331,5331,12601 Tech Ridge/Parmer,30.399775,-97.65916,78753
5332,5332,13201 McCallen/Parmer,30.411847,-97.663686,78753
5335,5335,Canyon Ridge/Tech Ridge,30.398148,-97.66904,78753
5336,5336,Canyon Ridge/Yager,30.398734,-97.668725,78753
5339,5339,3300 Wells Branch/Howard,30.440229,-97.695602,78728
5342,5342,1831 Wells Branch/Thermal,30.434587,-97.678139,78728
5345,5345,1101 Howard/Center Line,30.42281,-97.668272,78660
5346,5346,Lamar/Walnut Creek Park,30.398789,-97.679545,78753
5347,5347,12100 Lamar/Oakbrook,30.393252,-97.681428,78753
5348,5348,12001 Lamar/Oakbrook,30.393627,-97.681006,78753
5349,5349,West 38th Station (SB),30.304405,-97.741594,78705
5350,5350,38th/Guadalupe,30.303402,-97.739012,78705
5351,5351,West 38th Station (NB),30.304699,-97.741778,78705
5352,5352,38th/Ronson,30.303401,-97.739461,78705
5353,5353,Guadalupe/27th,30.293051,-97.74157,78705
5354,5354,2911 Congress/La Vista,30.232756,-97.758147,78704
5356,5356,Metric/Gracy Farms,30.397885,-97.704866,78758
5357,5357,31st Street Station (SB),30.298026,-97.741267,78705
5363,5363,5310 Congress/Mockingbird,30.207662,-97.773684,78745
5369,5369,SE Corner Road A/Road B,30.391468,-97.72598,78758
5372,5372,Airport/56th,30.31787,-97.71336,78751
5373,5373,Nueces/27th,30.291657,-97.742835,78705
5374,5374,1000 Howard/Center Line,30.422654,-97.667176,78660
5377,5377,6502 Bluff Springs/William Cannon,30.189947,-97.767587,78744
5378,5378,Cullen/Slaughter,30.166936,-97.790926,78748
5379,5379,San Jacinto/23rd (Midblock),30.286032,-97.733433,78705
5380,5380,404 Slaughter/Francia,30.169431,-97.796231,78748
5383,5383,5100 William Cannon/Pleasant Valley,30.180326,-97.748355,78744
5386,5386,Leander Station Bay C,30.586612,-97.855468,78641
5387,5387,Leander Station Bay D,30.586407,-97.855296,78641
5392,5392,2421 Rosewood/Bedford,30.272209,-97.70819,78702
5393,5393,815 Koenig/Lamar,30.326319,-97.726971,78752
5394,5394,810 45th/Red River,30.305167,-97.720184,78751
5396,5396,907 Lamar/Treadwell,30.256548,-97.761038,78704
5398,5398,5201 William Cannon/Pleasant Valley,30.179893,-97.747991,78744
5405,5405,Hyde Park Station (SB),30.303574,-97.737748,78751
5406,5406,9100 Georgian/Fawnridge,30.358478,-97.69499,78753
5408,5408,35th/Oakmont,30.308347,-97.754037,78703
5411,5411,11125 Pecan Park/Lakeline Mall,30.472972,-97.802673,78750
5413,5413,Lakeline/North Lake Creek,30.480141,-97.797375,78717
5415,5415,Airport/53rd,30.314086,-97.715128,78751
5416,5416,Slaughter/Simonetti,30.174173,-97.804467,78748
5421,5421,Balcones/Hart,30.342397,-97.754052,78731
5424,5424,601 Lamar/6th,30.27219,-97.753539,78703
5425,5425,5408 Loyola/Ed Bluestein,30.303092,-97.66195,78724
5427,5427,58 Waller/Holly,30.256066,-97.734469,78702
5428,5428,11020 Lakeline Mall/Pecan Park,30.472378,-97.801255,78750
5432,5432,Research/Riata Trace,30.425929,-97.75164,78727
5434,5434,Riverside/Metro Center,30.216684,-97.689637,78744
5436,5436,Airport/38th,30.289097,-97.707009,78723
5438,5438,305 Dean Keeton/San Jacinto,30.28922,-97.735182,78705
5442,5442,12430 Metric/Parmer,30.412277,-97.691362,78758
5445,5445,9302 Lamar/Rundberg,30.361758,-97.697927,78753
5446,5446,1113 Rutherford/Furness,30.340454,-97.690058,78753
5447,5447,1112 Rutherford/Furness,30.34058,-97.689935,78753
5449,5449,Lamar/West Gate,30.232283,-97.804555,78735
5452,5452,Braker/Mopac SW Corner,30.396412,-97.734329,78759
5455,5455,51st/Lancaster,30.308232,-97.707768,78723
5456,5456,Mabel Davis Park,30.220006,-97.742966,78741
5461,5461,1404 Fort Branch/Delano,30.278343,-97.680174,78721
5464,5464,2810 Oak Springs/Webberville,30.272939,-97.70225,78702
5465,5465,Govalle/Springdale,30.264033,-97.696785,78702
5466,5466,703 Montopolis/Ponca,30.237459,-97.695289,78741
5470,5470,Riverside/Palma Verde,30.217039,-97.685245,78744
5472,5472,8400 Menchaca/Keepsake,30.188239,-97.815012,78745
5473,5473,8204 West Gate/Linnet,30.196581,-97.829043,78745
5476,5476,8007 West Gate/Ranch,30.198683,-97.826885,78745
5478,5478,7408 West Gate/Grennock,30.201795,-97.81873,78745
5479,5479,3701 Menchaca/Valley View,30.236838,-97.783769,78704
5482,5482,Lancaster/Barbara Jordan,30.305736,-97.707517,78723
5483,5483,4826 Mueller/Philomena,30.302219,-97.705227,78722
5484,5484,Philomena/James Wheat,30.302188,-97.707735,78722
5487,5487,727 Stassney/Nancy,30.209059,-97.784284,78745
5489,5489,4917 Congress/Ramble,30.212115,-97.770916,78745
5491,5491,4800 Convict Hill/Brush Country,30.217489,-97.849946,78749
5492,5492,2200 Martin Luther King/Coleto,30.280356,-97.718217,78722
5493,5493,5401 Airport/53rd Half,30.316556,-97.713781,78751
5494,5494,5214 Duval/53rd,30.316257,-97.71852,78751
5496,5496,904 11th/Branch,30.269995,-97.731193,78702
5498,5498,Seaholm Station (NB),30.265065,-97.750824,78701
5499,5499,714 6th/West,30.270316,-97.75049,78701
5505,5505,1120 St Johns/Grand Canyon,30.32838,-97.694615,78752
5506,5506,7537 Cameron/Coronado Hills,30.330224,-97.688342,78752
5508,5508,1309 Anderson/Lazy,30.350746,-97.71972,78757
5509,5509,6903 Airport/Kenniston,30.336072,-97.717896,78752
5510,5510,Airport/Guadalupe,30.333155,-97.716673,78752
5514,5514,10112 Lake Creek/Pecan Park,30.464031,-97.789223,78729
5515,5515,9701 Anderson Mill/US 183,30.447933,-97.793006,78750
5516,5516,Rundberg/North Plaza,30.356717,-97.685632,78753
5517,5517,9813 Lamar/Longspur,30.368162,-97.693983,78753
5518,5518,11900 Lamar/Little Oak,30.389618,-97.682674,78753
5519,5519,Rutland/Ledgewood,30.375881,-97.710842,78758
5520,5520,13207 Metric/Staton,30.421335,-97.683113,78727
5521,5521,13621 Metric/Howard,30.42627,-97.676859,78727
5522,5522,13620 Metric/Howard,30.426334,-97.677159,78727
5528,5528,203 Dean Keeton/Whitis,30.289553,-97.739586,78705
5530,5530,13200 McCallen/Center Ridge,30.411844,-97.663981,78753
5534,5534,Downtown Station,30.264458,-97.737173,78701
5535,5535,Plaza Saltillo Station,30.262242,-97.727578,78702
5536,5536,M L King Jr Station,30.279818,-97.709031,78702
5537,5537,Highland Station,30.328601,-97.716203,78752
5538,5538,Crestview Station,30.338448,-97.719656,78757
5539,5539,Kramer Station,30.392786,-97.7164,78758
5540,5540,Howard Station,30.43999,-97.701734,78727
5541,5541,Lakeline Station,30.48103,-97.786543,78729
5542,5542,Leander Station,30.586401,-97.855735,78641
5543,5543,2630 Speedway/27th,30.29121,-97.736689,78705
5544,5544,South Congress Bay B,30.222917,-97.766932,78704
5545,5545,South Congress Bay C,30.223084,-97.766853,78704
5547,5547,South Congress Bay E,30.223436,-97.766645,78704
5551,5551,South Congress Bay I,30.223212,-97.766137,78704
5552,5552,South Congress Station Bay J,30.222941,-97.76628,78704
5553,5553,South Congress Station Bay K,30.222718,-97.766459,78704
5554,5554,1805 Riverside/Parker,30.242658,-97.729061,78741
5555,5555,10503 Lamar/Meadows,30.374311,-97.690809,78753
5558,5558,Loyola/Johnny Morris NW Corner,30.30163,-97.650907,78724
5564,5564,605 15th/Rio Grande,30.278652,-97.745979,78701
5567,5567,1215 Airport/12th,30.277589,-97.700657,78721
5568,5568,1181 Airport/Oak Springs,30.27541,-97.698904,78721
5569,5569,3400 Red River/Harris,30.293324,-97.725492,78705
5571,5571,3520 Martin Luther King/EM Franklin,30.283767,-97.696791,78723
5575,5575,1820 Ohlen/Renton,30.361169,-97.723184,78757
5577,5577,12016 Amherst/Eton,30.413599,-97.720831,78759
5580,5580,2415 Kramer/Brockton,30.392965,-97.715786,78758
5581,5581,Colony Loop/Shannon,30.298856,-97.641267,78724
5583,5583,7309 Ritchie/Colony Park,30.305498,-97.639174,78724
5585,5585,6063 US 290/Old Fredericksburg,30.234925,-97.85363,78749
5588,5588,MLK Station Stop 1,30.280159,-97.709219,78702
5592,5592,7900 Riverside/Hoeke,30.215795,-97.688718,78744
5593,5593,Palma Verde/Ben White,30.219121,-97.68783,78744
5594,5594,3508 Eskew/Leafield,30.203863,-97.838309,78749
5602,5602,6413 Airport Blvd (Highland Mall),30.328657,-97.715763,78752
5603,5603,6402 Airport Blvd (Highland Mall),30.328339,-97.716081,78752
5604,5604,7072 Easy Wind/St Johns,30.338721,-97.719548,78757
5605,5605,717 St Johns/Lamar,30.339109,-97.717454,78752
5606,5606,Crestview Station (SB),30.337841,-97.719048,78757
5607,5607,Howard Station Bus Stop,30.439972,-97.70124,78727
5608,5608,4005 Banister/Summer Oaks,30.229794,-97.778143,78704
5610,5610,1601 7th/Comal,30.263763,-97.725888,78702
5612,5612,408 Rundberg/North Creek,30.359516,-97.690554,78753
5613,5613,1215 51st/Cameron,30.308132,-97.708046,78723
5614,5614,12026 Metric/Bittern,30.403297,-97.700246,78758
5615,5615,12029 Metric/Bittern,30.403381,-97.699617,78758
5616,5616,3107 Manor/Airport,30.286352,-97.705525,78723
5617,5617,3219 Manor/Tillery,30.286817,-97.702734,78723
5622,5622,Del Valle ISD,30.174866,-97.610837,78617
5623,5623,205 Slaughter/SP Back Loop,30.167663,-97.793747,78748
5624,5624,651 Martin Luther King Jr/Red River,30.278688,-97.731471,78701
5625,5625,5789 Airport/Koenig,30.321647,-97.71395,78752
5626,5626,2629 Lake Austin/Exposition,30.282567,-97.776462,78703
5627,5627,1621 Rosewood/Lawson,30.269218,-97.721609,78702
5631,5631,4907 1st/Heartwood,30.214745,-97.776962,78745
5633,5633,421 Cesar Chavez/Trinity,30.262213,-97.740639,78701
5634,5634,2819 Guadalupe/29th,30.29474,-97.742407,78705
5635,5635,906 Lamar/Treadwell,30.256342,-97.761433,78704
5636,5636,4705 Heflin/Springdale,30.285183,-97.681314,78721
5637,5637,1913 Webberville/Stone Gate,30.28301,-97.674479,78721
5640,5640,5508 Martin Luther King Jr/Hilldale,30.286729,-97.671079,78723
5641,5641,5304 Martin Luther King Jr/Oldfort Hill,30.286744,-97.674512,78723
5642,5642,5107 Heflin/Webberville,30.28262,-97.676905,78721
5643,5643,Tannehill/Martin Luther King,30.286011,-97.669518,78721
5644,5644,6500 Loyola/Johnny Morris,30.300569,-97.648626,78724
5645,5645,6505 Loyola/Johnny Morris,30.300175,-97.648393,78724
5646,5646,Research/Georgian,30.344432,-97.705583,78753
5647,5647,Research/Northcrest,30.343392,-97.705027,78753
5649,5649,13175 Pond Springs/Turtle Rock,30.444876,-97.777674,78729
5650,5650,13050 Pond Springs/Hunters Chase,30.441581,-97.773724,78729
5653,5653,10818 Lakeline Mall/Lake Creek,30.474728,-97.795902,78729
5654,5654,Lakeline/US 183,30.480007,-97.800186,78750
5655,5655,620 Radam/James Casey,30.225294,-97.773151,78745
5659,5659,1512 Howard/Metric,30.426226,-97.675829,78727
5662,5662,1821 Ohlen/Renton,30.360919,-97.723494,78757
5663,5663,2000 Woodward/Ben White,30.217996,-97.743796,78741
5669,5669,1719 Aldrich/Mueller,30.297877,-97.707818,78722
5670,5670,1714 Aldrich/Mueller,30.298134,-97.707679,78722
5671,5671,Research/Mc Neil,30.434391,-97.768725,78729
5672,5672,9422 Anderson Mill/US 183,30.449417,-97.787707,78729
5673,5673,9514 Anderson Mill/US 183,30.449535,-97.788219,78729
5674,5674,137 Oltorf/Euclid (Saint Ignatius),30.240124,-97.75551,78704
5678,5678,9639 Metric/Rundberg,30.376782,-97.717048,78758
5679,5679,9540 Metric/Rundberg,30.376164,-97.717766,78758
5680,5680,2018 Rundberg/West,30.37334,-97.718224,78758
5681,5681,1933 Rundberg/West,30.373054,-97.718101,78758
5682,5682,1806 Rundberg/Northgate,30.371653,-97.715172,78758
5683,5683,1401 51st/Lancaster,30.306715,-97.70507,78723
5684,5684,5012 Airport/51st,30.311595,-97.715502,78751
5696,5696,SH 95/Main,30.357253,-97.382095,78621
5698,5698,ACC Cypress Creek,30.479477,-97.834422,78613
5699,5699,7944 Salt Springs/Roseborough,30.160958,-97.744331,78747
5700,5700,8022 Thaxton/Running Water,30.157548,-97.742243,78747
5701,5701,6501 Alum Rock/Fall Meadow,30.155447,-97.74224,78747
5702,5702,8213 Panadero/Alum Rock,30.157067,-97.743627,78747
5703,5703,1626 William Cannon/Bluff Springs,30.189223,-97.768461,78744
5704,5704,6625 Bluff Springs/William Cannon,30.187849,-97.767957,78744
5705,5705,11928 Metric/Sunhillow,30.40113,-97.702464,78758
5707,5707,1701 Briarcliff/Berkman (Midblock),30.313677,-97.691829,78723
5711,5711,525 Ben White/Terry O,30.219246,-97.757736,78704
5712,5712,4910 Freidrich/Teri,30.204578,-97.753199,78744
5713,5713,2230 Stassney/Dove,30.193336,-97.753967,78744
5718,5718,Braker/Road A (UT-PRC),30.392361,-97.725994,78758
5719,5719,10401 Burnet/Mc Hale,30.387502,-97.722935,78758
5720,5720,2140 Allandale/Wynona,30.33516,-97.741613,78757
5722,5722,Mc Kinney Falls/Burleson,30.192301,-97.698227,78744
5723,5723,3450 Lake Austin/Lufkin,30.288533,-97.780899,78703
5724,5724,UT Research Campus Station (NB),30.388232,-97.727049,78758
5728,5728,5902 Riverside/Grove,30.2273,-97.708137,78741
5732,5732,12425 Lamplight Village/Parmer,30.413849,-97.696742,78758
5733,5733,6310 Burnet/White Horse,30.337991,-97.739414,78757
5734,5734,10700 Metric/Donley,30.386819,-97.711534,78758
5735,5735,7401 S 1st/Elderberry,30.187782,-97.790505,78745
5736,5736,6107 Hogan/Montopolis,30.235551,-97.699597,78741
5739,5739,6806 Burleson/Smith School,30.201668,-97.709615,78744
5740,5740,3825 Lake Austin/Enfield,30.295668,-97.783853,78703
5741,5741,2616 Stassney/West Gate,30.219024,-97.806938,78745
5743,5743,1200 Congress/Nellie,30.252434,-97.74878,78704
5744,5744,Justin Station (SB),30.345717,-97.737518,78757
5745,5745,7212 Burnet/Greenlawn,30.348757,-97.735555,78757
5746,5746,8003 Burnet/Ashdale,30.358604,-97.730093,78757
5747,5747,2401 12th/Pleasant Valley,30.274488,-97.714983,78702
5748,5748,1803 Montopolis/Kasper,30.226187,-97.70256,78741
5749,5749,702 Montopolis/Ponca,30.237009,-97.695757,78741
5750,5750,9800 Curlew/Aftonshire,30.177943,-97.833807,78748
5752,5752,11609 Metric/Gold Wing,30.395748,-97.705714,78758
5753,5753,5611 West Gate/Stassney,30.220642,-97.806754,78745
5754,5754,3418 Enfield/Robinhood,30.294345,-97.779805,78703
5755,5755,Braker/Mopac (Farside/Midblock),30.397553,-97.736066,78759
5757,5757,1912 William Cannon/Elm Creek (Apt),30.18828,-97.764296,78744
5758,5758,1901 William Cannon/Bluff Springs,30.188349,-97.765515,78744
5759,5759,7206 Salt Springs/Orange Blossom,30.167923,-97.740046,78744
5760,5760,11906 Stonehollow/Metric,30.401527,-97.704398,78758
5761,5761,1779 Wells Branch/Wells Port,30.435736,-97.67502,78728
5764,5764,1426 Wells Branch/FM 1825,30.441366,-97.665433,78660
5765,5765,1425 Wells Branch/FM 1825,30.441022,-97.664663,78660
5766,5766,1114 Wells Branch/Drusillas,30.438694,-97.65949,78660
5767,5767,1113 Wells Branch/Drusillas,30.437941,-97.658872,78660
5768,5768,1600 Heatherwilde/Wells Branch,30.432288,-97.654196,78660
5769,5769,501 Wells Branch/Heatherwilde,30.433412,-97.653076,78660
5770,5770,2551 Heatherwilde/Wild Senna,30.422415,-97.658839,78660
5771,5771,2600 Heatherwilde/Wild Senna,30.422266,-97.659205,78660
5774,5774,4549 Riverside/Wickersham,30.232094,-97.719875,78741
5776,5776,201 W Carrie Manor/Lexington,30.339694,-97.559124,78653
5777,5777,Main/Depot,30.347325,-97.370389,78621
5778,5778,1st/FM 1626 (Akins),30.147252,-97.803199,78748
5779,5779,1717 Pleasant Valley/Riverside,30.235778,-97.721346,78741
5781,5781,1718 Briarcliff/Berkman,30.31399,-97.692156,78723
5782,5782,6116 Cameron/Glencrest,30.319537,-97.697311,78723
5783,5783,5324 Cameron/Broadmoor,30.31124,-97.707439,78723
5784,5784,9600 Burnet/Longhorn,30.379659,-97.725088,78758
5785,5785,Lake Creek/Hymeadow,30.463646,-97.789238,78729
5786,5786,2918 Martin Luther King Jr/Clifford,30.282033,-97.70768,78722
5788,5788,4404 Oltorf/Huntwick,30.226807,-97.726139,78741
5789,5789,Oltorf/Wickersham,30.225462,-97.724035,78741
5791,5791,2525 Kramer/Burnet,30.394612,-97.719265,78758
5792,5792,Millwright/Timbercrest,30.453237,-97.803326,78750
5794,5794,4924 Mueller/Barbara Jordan,30.303915,-97.704151,78722
5796,5796,4300 Airport/Wilshire,30.297973,-97.709321,78722
5797,5797,SH 71/Cheviot (EB),30.203347,-97.641677,78617
5798,5798,8208 Alum Rock/Broad Brook,30.154079,-97.736716,78747
5801,5801,2832 Martin Luther King Jr/Alexander,30.281684,-97.709892,78722
5802,5802,2833 Martin Luther King Jr/Alexander,30.281548,-97.709813,78702
5803,5803,Del Valle ISD (Alt School),30.175917,-97.612199,78617
5804,5804,219 11th/San Jacinto,30.272292,-97.739054,78701
5805,5805,11101 Lakeline/North Lake Creek,30.479846,-97.79749,78717
5808,5808,7500 Manor/Pecan Brook,30.319038,-97.660988,78724
5810,5810,8408 Tuscany/US 290,30.330722,-97.659482,78754
5811,5811,8407 Tuscany/US 290,30.330713,-97.65973,78754
5812,5812,Exchange/Tuscany,30.337281,-97.662047,78754
5813,5813,8009 Exchange/Tuscany,30.337487,-97.662196,78754
5814,5814,8073 Exchange/Cross Park,30.33016,-97.666769,78754
5815,5815,8073 Exchange/Cross Park,30.330305,-97.666971,78754
5816,5816,8124 Exchange/Interparke,30.330492,-97.671781,78754
5817,5817,Exchange/Interparke,30.330534,-97.672337,78754
5818,5818,2202 Forbes/Cross Park,30.335191,-97.673447,78754
5819,5819,2205 Forbes/Cross Park,30.335264,-97.673676,78754
5822,5822,10000 Metric/Rutland,30.38015,-97.716413,78758
5823,5823,10001 Metric/Rutland,30.380334,-97.716008,78758
5824,5824,2208 Lake Austin/Upson,30.277571,-97.771314,78703
5825,5825,2530 Lake Austin/Hearn,30.279419,-97.774048,78703
5826,5826,4701 Stassney/Pleasant Valley,30.19389,-97.743863,78744
5828,5828,4604 Stassney/Pleasant Valley,30.194088,-97.744476,78744
5829,5829,5301 Stassney/Nuckols,30.192738,-97.738231,78744
5831,5831,5200 Stassney/Nuckols,30.193201,-97.738673,78744
5832,5832,5901 Stassney/Teri,30.191093,-97.731222,78744
5833,5833,3712 Montopolis/Burleson,30.205063,-97.716751,78744
5834,5834,3577 Montopolis/Burleson,30.206201,-97.716307,78744
5835,5835,3120 Montopolis/Ben White,30.210443,-97.71331,78744
5836,5836,3121 Montopolis/Ben White,30.210671,-97.713467,78744
5837,5837,8800 West Gate/Davis,30.191273,-97.833432,78745
5838,5838,West Gate/Davis,30.190773,-97.833402,78745
5839,5839,West Gate/Cohoba,30.187372,-97.836128,78748
5840,5840,West Gate/Cohoba,30.187388,-97.835845,78748
5842,5842,2908 Slaughter/Lindshire,30.178173,-97.838419,78748
5843,5843,West Gate/Aftonshire,30.18003,-97.840445,78748
5844,5844,Metropolis/Veterans Clinic,30.207627,-97.690495,78744
5845,5845,Esperanza Crossing/Domain,30.39988,-97.724385,78759
5846,5846,6705 Crystalbrook/Loyola (Park),30.303303,-97.65354,78724
5847,5847,3500 Loyola/Manor,30.310494,-97.667452,78723
5848,5848,6713 Manor/Loyola,30.310484,-97.666576,78723
5849,5849,Northcross Station (SB),30.354217,-97.732117,78757
5851,5851,7719 Northcross/Foster,30.354986,-97.73617,78757
5854,5854,2535 Anderson/Northcross,30.357183,-97.733456,78757
5855,5855,2711 Anderson/Northcross,30.358707,-97.736521,78757
5856,5856,2714 Foster/Northcross,30.357211,-97.737209,78757
5857,5857,Chinatown Station (SB),30.380367,-97.687401,78753
5858,5858,Masterson Station (SB),30.370933,-97.692733,78753
5859,5859,North Lamar Station,30.349326,-97.711685,78753
5860,5860,Crestview Station (NB),30.336928,-97.71927,78752
5861,5861,Brentwood Station (SB),30.326842,-97.725899,78752
5862,5862,Brentwood Station (NB),30.326309,-97.725951,78752
5863,5863,UT Dean Keeton Station (SB),30.291145,-97.741349,78705
5864,5864,UT Dean Keeton Station (NB),30.289297,-97.741364,78705
5865,5865,UT West Mall Station (NB),30.286127,-97.741597,78705
5866,5866,Museum Station (SB),30.279366,-97.742545,78701
5867,5867,Republic Square Station (SB),30.267751,-97.746857,78701
5868,5868,Republic Square Station (NB),30.266218,-97.746056,78701
5869,5869,St Edwards Station (NB),30.230564,-97.759511,78704
5870,5870,St Edwards Station (SB),30.228933,-97.760817,78704
5871,5871,Little Texas Station (SB),30.203384,-97.775434,78745
5872,5872,Pleasant Hill Station (SB),30.1924,-97.779234,78745
5873,5873,Southpark Meadows Station,30.162883,-97.790317,78744
5875,5875,Bluebonnet Station (NB),30.246384,-97.778167,78704
5876,5876,UT Research Campus Station (SB),30.388251,-97.727233,78758
5877,5877,Sunshine Station (SB),30.315717,-97.73635,78756
5879,5879,Bluebonnet Station (SB),30.246766,-97.777874,78704
5881,5881,Lakeline/US 183,30.478414,-97.804675,78750
5882,5882,6505 Burleson (Goodwill),30.204222,-97.714111,78744
5889,5889,5801 Slaughter/Escarpment,30.200218,-97.876027,78737
5890,5890,5796 Slaughter/Escarpment,30.200512,-97.876375,78737
5891,5891,9111 Beckett/La Cresada,30.203832,-97.870754,78749
5893,5893,8719 Beckett/Davis,30.208187,-97.869105,78749
5896,5896,8101 Beckett at Dick Nichols Park,30.213884,-97.863891,78749
5897,5897,8100 Beckett at Dick Nichols Park,30.213994,-97.864006,78749
5898,5898,7405 Beckett/Ponoma,30.219823,-97.858161,78749
5899,5899,7406 Beckett/Ponoma,30.219825,-97.858349,78749
5900,5900,6911 Brush Country/One Oak,30.219895,-97.843893,78749
5901,5901,6914 Brush Country/One Oak (Church),30.219297,-97.844402,78749
5902,5902,6703 Brush Country/William Cannon,30.222951,-97.841813,78749
5903,5903,6704 Brush Country/William Cannon,30.222867,-97.842115,78749
5905,5905,Beckett/Davis,30.208176,-97.869316,78749
5906,5906,Beckett/La Cresada,30.203488,-97.871002,78749
5907,5907,10404 Escarpment/La Crosse,30.193886,-97.885556,78739
5908,5908,10405 Escarpment/La Crosse,30.193652,-97.885356,78739
5909,5909,11241 Escarpment/South Bay,30.185521,-97.894708,78739
5910,5910,11148 Escarpment/South Bay,30.185994,-97.89469,78739
5911,5911,5507 Jackie Robinson/Delano,30.276475,-97.678406,78721
5912,5912,4100 Tannehill/Samuel Huston,30.279199,-97.674156,78721
5913,5913,4600 Tannehill/Martin Luther King,30.285718,-97.669918,78721
5914,5914,6401 FM 969/Craigwood,30.284631,-97.660034,78724
5915,5915,6506 FM 969/Craigwood EB,30.284787,-97.659596,78724
5916,5916,10001 Stonelake/Capital of Texas,30.391198,-97.739283,78759
5917,5917,4216 Freidrich/St Elmo,30.211274,-97.748981,78744
5918,5918,4300 Airport/Aldrich,30.29844,-97.709294,78722
5919,5919,Domain Station,30.39985,-97.72045,78758
5920,5920,Mopac/Braker,30.393962,-97.732447,78759
5922,5922,8005 Georgian/Wonsley,30.345388,-97.704224,78753
5923,5923,Georgian/Research,30.343527,-97.705431,78753
5924,5924,West Gate/Piney Creek,30.193687,-97.831489,78745
5925,5925,4925 Berkman/Barbara Jordan,30.302547,-97.699539,78722
5926,5926,4924 Berkman/Barbara Jordan,30.302693,-97.699868,78722
5927,5927,Del Valle High (Tennis Courts),30.177571,-97.614481,78617
5929,5929,Wells Branch/Double File,30.441831,-97.690286,78728
5932,5932,1410 51st/Mueller,30.306564,-97.704286,78723
5937,5937,104 8th/Congress,30.269914,-97.741869,78701
5938,5938,216 8th/Lavaca,30.270613,-97.744215,78701
5940,5940,1609 Lavaca/17th (Midblock),30.278834,-97.741358,78701
5944,5944,Lavaca/3rd,30.265792,-97.746213,78701
5945,5945,9100 US 290/Springdale,30.328995,-97.656302,78724
5949,5949,411 8th/Trinity,30.268997,-97.738479,78701
5950,5950,812 Guadalupe/8th,30.271503,-97.745478,78701
5951,5951,101 Braker/Georgian,30.379016,-97.681568,78753
5962,5962,8425 West Gate/Cameron,30.194439,-97.830919,78745
5963,5963,7809 West Gate/Epping,30.199081,-97.823457,78745
5964,5964,5350 Burnet/Lawnmont,30.327517,-97.739833,78756
5965,5965,813 Lavaca/8th (Farside),30.270952,-97.744272,78701
5968,5968,324 Slaughter/Francia,30.169205,-97.795494,78748
5969,5969,8120 Research/Anderson,30.353034,-97.714976,78758
5970,5970,Primose,30.319961,-97.704051,78723
5974,5974,2901 Montopolis/Oltorf,30.215288,-97.71025,78741
5976,5976,1800 Wells Branch/Wells Port,30.43565,-97.675662,78728
5977,5977,3900 Medical/39th,30.306917,-97.743506,78756
5978,5978,3706 Lamar/38th,30.304705,-97.743531,78705
5979,5979,201 45th/Avenue F,30.308071,-97.727271,78751
5980,5980,12323 Pearce/Las Alas,30.171314,-97.627242,78617
5981,5981,Loyola/Wentworth,30.292958,-97.631241,78724
5982,5982,8309 Loyola/Wentworth,30.292743,-97.631318,78724
5983,5983,6036 Elfen/Hog Eye,30.284038,-97.626837,78724
5984,5984,9301 Hog Eye - Community First,30.282478,-97.6232,78724
5985,5985,12321 Pearce/Las Alas,30.171771,-97.627919,78617
5986,5986,12905 Thome Valley/Alomar,30.172853,-97.617366,78617
5987,5987,12904 Thome Valley/Alomar,30.172998,-97.617421,78617
5988,5988,Gilwell/Thome Valley,30.174468,-97.613185,78617
5989,5989,Gilwell/Justice,30.174761,-97.61346,78617
5990,5990,Gilwell/Bahan,30.175517,-97.616139,78617
5991,5991,Gilwell/Mathra,30.175667,-97.616277,78617
5992,5992,112 Martin Luther King Jr/Congress,30.280545,-97.737318,78705
5994,5994,8004 West Gate/Ranch,30.198861,-97.82689,78745
5995,5995,1005 Lamar/10th,30.275304,-97.752067,78703
5997,5997,Overton Driveway/Overton Driveway,30.300421,-97.636572,78724
5999,5999,509 Slaughter/1st,30.171586,-97.798742,78748
6002,6002,4104 Banister/Morgan,30.228317,-97.77908,78704
6003,6003,Johnny Morris/Craybrough,30.303039,-97.64631,78724
6004,6004,Johnny Morris/Point North,30.308047,-97.643051,78724
6005,6005,Daffan/Oak Crest,30.314304,-97.620203,78724
6006,6006,Daffan/Decker,30.312258,-97.615894,78724
6070,6070,Eagles Landing Apt/Decker,30.307142,-97.622128,78724
6071,6071,Lohman Ford/FM 1431,30.474088,-97.975103,78645
6082,6082,2219 Elmont/Town Lake,30.240462,-97.723178,78741
6083,6083,2300 Elmont/Violet Crown,30.240547,-97.723068,78741
6084,6084,4800 Manor/Creekwood,30.295369,-97.689006,78723
6085,6085,Metropolis/Metlink,30.206856,-97.695054,78744
6087,6087,Louis Henna/Farmers Circle,30.479488,-97.676773,78728
6088,6088,Parker Dr/Jarrett Way,30.476073,-97.677465,78728
6089,6089,Michael Angelo Way/Wadley Place,30.47238,-97.675677,78728
6091,6091,3801 Berkman/Tom Miller,30.290322,-97.698669,78723
6093,6093,10300 Jollyville/Great Hills,30.396981,-97.750138,78759
6094,6094,Bagdad/Brown,30.50715,-97.681161,78664
6095,6095,New Life Park and Ride,30.435217,-97.697402,78727
6159,6159,University/21st,30.283593,-97.739574,78705
6160,6160,Louis Henna/Walmart,30.481344,-97.670476,78664
6161,6161,Dell Way/Greenlawn,30.485241,-97.6639,78664
6162,6162,Greenlawn/Dell Way,30.486009,-97.661968,78664
6163,6163,Greenlawn/Stratford,30.4916,-97.663418,78664
6164,6164,Greenlawn/Stratford,30.492075,-97.66384,78664
6165,6165,Gattis School/Greenlawn,30.496084,-97.666543,78664
6167,6167,Lawnmont/Gattis School,30.496058,-97.669247,78664
6169,6169,School Days/Lawnmont,30.49827,-97.669515,78664
6170,6170,School Days/Lawnmont,30.498146,-97.669514,78664
6171,6171,School Days/Cushing,30.498148,-97.674554,78664
6172,6172,School Days/Cushing,30.498022,-97.674603,78664
6173,6173,Cushing/Logan,30.501634,-97.675042,78664
6174,6174,Cushing/Logan,30.501457,-97.675164,78664
6175,6175,Mc Neil/Round Rock West,30.500668,-97.684984,78681
6176,6176,Round Rock West/Mc Neil,30.500964,-97.685888,78681
6177,6177,Round Rock West/Park,30.503531,-97.691724,78681
6178,6178,Round Rock West/Park,30.50364,-97.692045,78681
6179,6179,Lake Creek/Westwood,30.507696,-97.694401,78681
6180,6180,Lake Creek/Westwood,30.508089,-97.694652,78681
6181,6181,Oakwood/Round Rock Ave,30.511175,-97.710394,78681
6182,6182,Park Valley/Oakwood,30.512175,-97.71356,78681
6183,6183,8515 Loyola/Decker,30.291672,-97.628589,78724
6184,6184,La Frontera/Hesters Crossing,30.483887,-97.686873,78681
6185,6185,Hesters Crossing/Kouri,30.48484,-97.685282,78681
6186,6186,La Frontera/Sundance,30.481529,-97.685806,78681
6187,6187,La Frontera Blvd/Sundance Pkwy,30.481699,-97.68559,78681
6188,6188,Hesters Crossing/Rawhide,30.487237,-97.680809,78681
6189,6189,Hesters Crossing/Rawhide,30.487468,-97.679853,78681
6190,6190,1816 Mays/Tower,30.492449,-97.675522,78664
6191,6191,Mays/Tower,30.49196,-97.67575,78664
6192,6192,Mays/Shipley,30.496413,-97.67599,78664
6193,6193,Mays/Mays Crossing,30.499799,-97.676214,78664
6194,6194,Mays/Mays Crossing,30.500578,-97.676059,78664
6195,6195,Main/Burnet,30.509196,-97.676355,78664
6196,6196,Main/Burnet,30.509463,-97.675994,78664
6197,6197,Main St/Georgetown St,30.510439,-97.671924,78664
6198,6198,104 Georgetown/Main,30.510752,-97.671697,78664
6199,6199,Georgetown/Palm Valley,30.516627,-97.670963,78664
6200,6200,Georgetown/Palm Valley,30.517453,-97.670963,78664
6201,6201,Plateau Vista/Aw Grimes,30.521138,-97.657237,78664
6202,6202,Plateau Vista/Aw Grimes,30.520992,-97.657819,78664
6203,6203,Mesa Park/Bayland,30.520856,-97.661434,78664
6204,6204,Mesa Park/Bayland,30.520999,-97.661556,78664
6205,6205,Sunrise/Greenfield,30.522608,-97.667727,78664
6206,6206,Sunrise/Greenfield,30.523172,-97.667891,78664
6207,6207,Sunrise/Wayne,30.526146,-97.667778,78664
6208,6208,Sunrise/Wayne,30.526518,-97.667947,78664
6209,6209,Sunrise/Bowman (Tiger Trail),30.529748,-97.667802,78664
6210,6210,Sunrise/Bowman (Tiger Trail),30.530674,-97.668014,78664
6211,6211,Sunrise/Country Aire,30.534731,-97.66787,78664
6212,6212,Sunrise/Country Aire,30.534574,-97.668065,78664
6213,6213,Sunrise/Old Settlers,30.537555,-97.668187,78664
6214,6214,Sunrise/Old Settlers,30.53805,-97.668019,78664
6215,6215,Sunrise/Double File,30.541191,-97.670999,78665
6216,6216,Sunrise/Double File,30.541036,-97.671114,78665
6219,6219,Sunrise/Eagles Nest,30.552161,-97.676562,78665
6220,6220,Sunrise/Eagles Nest,30.552211,-97.676815,78665
6221,6221,Sunrise/Hidden Valley,30.55775,-97.678726,78665
6222,6222,Sunrise/Hidden Valley,30.558732,-97.679367,78665
6223,6223,Mays/Teravista,30.56808,-97.686785,78664
6224,6224,N Mays St/Teravista Pkwy,30.568408,-97.686563,78665
6225,6225,N Mays/University,30.561458,-97.687175,78665
6226,6226,N Mays St/University,30.561527,-97.686898,78665
6227,6227,University/Teravista Club,30.565842,-97.669101,78665
6228,6228,University/Teravista Club,30.565967,-97.669358,78665
6229,6229,University/Sandy Brook,30.567009,-97.665125,78665
6230,6230,University/Sandy Brook,30.567374,-97.664627,78665
6232,6232,College Park/University,30.566885,-97.658493,78665
6233,6233,ACC - Round Rock,30.562381,-97.656457,78665
6234,6234,2800 La Frontera/Louis Henna,30.478191,-97.685344,78681
6235,6235,La Frontera/Louis Henna,30.477587,-97.685244,78728
6240,6240,Greenlawn/Parkside,30.497075,-97.665437,78664
6241,6241,1766 71/Thornberry,30.219402,-97.670379,78617
6243,6243,504 Campbell/5th,30.275026,-97.764825,78703
6248,6248,5302 Duval/53rd,30.316511,-97.718524,78751
6250,6250,1300 Mearns Meadow/Parkfield,30.371787,-97.702814,78758
6251,6251,1225 Mearns Meadow/Parkfield,30.371871,-97.703081,78758
6252,6252,10014 Mountain Quail/Mearns Meadow,30.375848,-97.705196,78758
6253,6253,10001 Mountain Quail/Oak Hollow,30.375732,-97.705971,78758
6254,6254,9507 Mountain Quail/Rutland,30.371326,-97.709486,78758
6255,6255,9512 Mountain Quail/Rutland,30.371315,-97.709301,78758
6256,6256,1107 Mearns Meadow/Quail,30.369771,-97.700627,78758
6257,6257,1106 Mearns Meadow/Quail,30.369664,-97.700786,78758
6258,6258,1020 Mearns Meadow/Rutland,30.366754,-97.70087,78758
6261,6261,3513 Cesar Chavez/Springdale,30.252034,-97.7047,78702
6263,6263,3069 Cesar Chavez/Tillery,30.251738,-97.708599,78702
6265,6265,2719 Cesar Chavez/Pleasant Valley,30.253005,-97.712584,78702
6266,6266,2723 Cesar Chavez/Pleasant Valley,30.252964,-97.713005,78702
6267,6267,2411 Cesar Chavez/Pedernales,30.254573,-97.717283,78702
6268,6268,2504 Cesar Chavez/Pedernales,30.254208,-97.716515,78702
6269,6269,2111 Cesar Chavez/Robert T Martinez Jr,30.255752,-97.720588,78702
6270,6270,2204 Cesar Chavez/Robert T Martinez Jr,30.25572,-97.720807,78702
6271,6271,1801 Cesar Chavez/Chicon,30.257268,-97.724841,78702
6272,6272,1906 Cesar Chavez/Chicon,30.256843,-97.724082,78702
6274,6274,203 Cesar Chavez/Colorado,30.26392,-97.74614,78701
6275,6275,321 Nueces/3rd,30.267105,-97.749241,78701
6276,6276,467 38th/Guadalupe,30.302273,-97.73745,78705
6277,6277,104 38th/Speedway,30.300733,-97.733816,78751
6278,6278,101 38th/Speedway,30.300391,-97.733404,78705
6279,6279,413 38th/Duval,30.298718,-97.729583,78751
6280,6280,416 38th/Duval,30.298511,-97.729686,78705
6281,6281,813 38th Half/Red River,30.296535,-97.723448,78751
6282,6282,814 38th Half/Red River,30.296361,-97.723433,78751
6285,6285,1612 38th Half/Cherrywood,30.291761,-97.713782,78722
6286,6286,1801 38th Half/Brookview,30.29042,-97.710641,78722
6288,6288,1827 38th Half/Airport,30.28924,-97.707815,78722
6289,6289,3504 Manor/Greenwood,30.288223,-97.700049,78723
6290,6290,1906 38th Half/Airport,30.289159,-97.706708,78723
6291,6291,3803 Berkman/Tom Miller,30.290214,-97.699019,78723
6292,6292,4310 Berkman/Simond,30.296343,-97.700088,78722
6293,6293,4307 Berkman/Simond,30.296149,-97.700385,78722
6294,6294,5304 Berkman/Westmoor,30.306662,-97.697044,78723
6295,6295,5305 Berkman/Broadmoor,30.306736,-97.697201,78723
6296,6296,4281 51st/Springdale,30.293984,-97.678299,78723
6297,6297,4918 Springdale/51st,30.293146,-97.67813,78723
6298,6298,3105 51st/Pecan Springs,30.295788,-97.682118,78723
6300,6300,2785 51st/Manor,30.298024,-97.686908,78723
6301,6301,2760 51st/Manor,30.298344,-97.687272,78723
6303,6303,1828 51st/HEB,30.302821,-97.698114,78722
6306,6306,467 St Johns/Duval,30.334122,-97.706753,78752
6307,6307,576 St Johns/Roland Johnson,30.33382,-97.706498,78752
6309,6309,4509 Teri/Pleasant Valley,30.197276,-97.744457,78744
6310,6310,1115 45th/Bellvue,30.314514,-97.739579,78756
6311,6311,4512 Teri/Pleasant Valley,30.197005,-97.744449,78744
6312,6312,2332 Teri/Palo Blanco,30.198713,-97.747444,78744
6313,6313,2303 Teri/Spruce,30.200206,-97.748981,78744
6314,6314,115 7th/Colorado,30.269174,-97.743476,78701
6315,6315,805 Trinity/8th,30.269216,-97.738446,78701
6316,6316,5976 290 Hwy/Harper Park,30.235923,-97.850974,78735
6317,6317,5411 290 Hwy/Monterey Oaks,30.236059,-97.838517,78749
6318,6318,5107 290 Hwy/Staggerbrush,30.235685,-97.828488,78749
6319,6319,128 Slaughter/35,30.166826,-97.784071,78744
6320,6320,5504 290 Hwy/Industrial Oaks,30.237159,-97.840989,78735
6321,6321,149 Slaughter/35,30.167111,-97.783798,78744
6322,6322,130 Slaughter/Congress,30.166994,-97.789102,78748
6323,6323,626 Slaughter/Narrow Glen,30.162931,-97.778341,78744
6324,6324,515 Slaughter/Narrow Glen,30.164163,-97.778484,78744
6325,6325,732 Slaughter/E Slaughter To Brandt,30.160354,-97.776979,78744
6326,6326,729 Slaughter/E Slaughter To Brandt,30.160628,-97.776726,78744
6327,6327,132 Slaughter/Congress,30.167294,-97.789084,78745
6330,6330,102 Chicon/Cesar Chavez,30.257258,-97.724661,78702
6331,6331,107 Chicon/Cesar Chavez,30.257488,-97.724394,78702
6332,6332,4804 Mueller/Philomena,30.301239,-97.70562,78722
6334,6334,3010 Slaughter/West Gate,30.179113,-97.840995,78748
6335,6335,1716 Barbara Jordan/Berkman,30.302661,-97.700391,78722
6336,6336,4121 Red River/Park,30.301232,-97.72155,78751
6337,6337,4202 Red River/Park,30.301618,-97.721598,78751
6338,6338,8630 Vertex/Cattle Baron,30.156566,-97.752831,78747
6339,6339,8707 Vertex/Cattle Baron,30.155931,-97.753078,78747
6340,6340,4923 Airport/50th,30.31092,-97.715345,78751
6343,6343,1818 51st/Bartholomew Pool,30.303536,-97.698581,78722
6345,6345,309 San Antonio/4th,30.267071,-97.748099,78701
6346,6346,1423 St Johns/Cameron,30.325707,-97.691802,78752
6348,6348,Fairfield Station (NB),30.355674,-97.702242,78753
6355,6355,St Elmo Station (NB),30.217776,-97.766955,78745
6356,6356,St Elmo Station (SB),30.216701,-97.768024,78745
6357,6357,Broken Spoke Station (NB),30.240739,-97.78607,78704
6358,6358,Broken Spoke Station (SB),30.241007,-97.786179,78704
6360,6360,North Loop East Station (SB),30.320818,-97.729694,78751
6361,6361,Slaughter Station (SB),30.169621,-97.787869,78745
6362,6362,Slaughter Station (NB),30.169961,-97.787073,78745
6363,6363,703 St Johns/Lamar,30.339309,-97.717448,78752
6364,6364,5106 Quicksilver/Canella,30.172401,-97.752691,78744
6365,6365,5109 Quicksilver/Pleasant Valley,30.1722,-97.752393,78744
6366,6366,633 Calles/Diaz,30.259543,-97.712031,78702
6367,6367,4522 Riverside/Wickersham,30.232684,-97.720706,78741
6368,6368,5925 Riverside/Grove,30.226741,-97.70763,78741
6369,6369,1411 Fort Branch/Meander,30.278736,-97.680321,78721
6370,6370,303 7th/San Jacinto,30.268158,-97.739822,78701
6372,6372,Vic Mathias/Auditorium/Temporary (SB),30.25782,-97.747767,78704
6373,6373,Westgate Transit Center - A,30.230908,-97.790295,78745
6374,6374,Westgate Transit Center - B,30.231106,-97.790843,78745
6375,6375,Westgate Transit Center - C,30.231153,-97.791129,78745
6377,6377,Westgate Transit Center - E,30.231527,-97.791606,78745
6379,6379,Westgate Transit Center - F,30.231403,-97.790588,78704
6382,6382,608 11th/Red River,30.271094,-97.734976,78701
6384,6384,8473 Loyola/Decker,30.291505,-97.62879,78724
6385,6385,4338 Tannehill/Webberville,30.281843,-97.67245,78721
6386,6386,4301 Tannehill/Webberville,30.281393,-97.672539,78721
6387,6387,1508 Barbara Jordan/Mueller,30.304113,-97.703462,78722
6388,6388,2751 Foster/Rockwood,30.357549,-97.738037,78757
6389,6389,603 Colorado/6th,30.268821,-97.743885,78701
6390,6390,6188 Convict Hill/Escarpment,30.225555,-97.86838,78749
6391,6391,6317 Convict Hill/Escarpment,30.226028,-97.868956,78749
6392,6392,6959 Convict Hill/290,30.230043,-97.87863,78749
6393,6393,6964 Convict Hill/290,30.230056,-97.878875,78749
6394,6394,609 Colorado/7th,30.269211,-97.743753,78701
6395,6395,5169 290 Hwy/Boston,30.237094,-97.830782,78735
6396,6396,5638 290 Hwy/Westcreek,30.235954,-97.84556,78735
6397,6397,Westgate Transit Center,30.231456,-97.791271,78704
6398,6398,Tech Ridge Park & Ride,30.417873,-97.666737,78660
6399,6399,Leander Park & Ride,30.587897,-97.855721,78641
6400,6400,North Lamar Transit Center,30.349964,-97.712886,78753
6401,6401,Lakeline Park & Ride,30.480127,-97.787784,78729
6402,6402,Howard Station Park & Ride,30.440562,-97.70036,78728
6403,6403,South Congress Transit Center,30.22249,-97.766914,78745
6404,6404,27 Waller/Flores,30.253346,-97.735557,78702
6406,6406,Howard Station Bay B,30.440473,-97.701695,78727
6407,6407,603 Slaughter/1st,30.172829,-97.799722,78748
6408,6408,5843 Balcones/Northland,30.340402,-97.755087,78731
6409,6409,1509 Barbara Jordan/Mueller,30.303868,-97.703474,78722
6412,6412,530 Shady/5th,30.252556,-97.698171,78702
6413,6413,5104 5th/Shady,30.252159,-97.698091,78702
6414,6414,189 Springdale/Cesar Chavez,30.252336,-97.703929,78702
6419,6419,Norwood Transit Center - A,30.340202,-97.691345,78753
6421,6421,Norwood Transit Center - C,30.340396,-97.691019,78753
6423,6423,Norwood Transit Center - E,30.340471,-97.690999,78753
6424,6424,Norwood Transit Center - F,30.340372,-97.691159,78753
6426,6426,Norwood Transit Center,30.340154,-97.691472,78753
6427,6427,10099 Burnet/Mc Hale,30.385221,-97.723575,78758
6428,6428,2007 Pleasant Valley/Riverside,30.233492,-97.724007,78741
6430,6430,MLK Jr Station,30.279442,-97.709643,78702
6431,6431,6822 Cameron/Camino La Costa,30.323777,-97.693885,78752